AIRPORT,DISPLAY_AIRPORT_NAME,AIRPORT_STATE_CODE,AIRPORT_STATE_FIPS,CITY_MARKET_ID,DISPLAY_CITY_MARKET_NAME_FULL,CITY_MARKET_WAC,LATITUDE,LONGITUDE,AIRPORT_START_DATE
AL1,Albertville Regional-Thomas J Brumlik Field,AL,1,30253,"Albertville, AL",51,34.22916667,-86.25583333,1/1/03
AL2,Shelby County,AL,1,30254,"Alabaster, AL",51,33.17777778,-86.78333333,7/1/11
AL3,Huntsville Executive Airport Tom Sharp Jr,AL,1,30255,"Huntsville, AL",51,34.85944444,-86.5575,12/1/17
ALX,Thomas C. Russell Field,AL,1,30276,"Alexander City, AL",51,32.91472222,-85.96305556,7/1/11
ANB,Anniston Regional,AL,1,30298,"Anniston, AL",51,33.58805556,-85.85805556,12/1/17
ASN,Talladega Municipal,AL,1,30380,"Talladega, AL",51,33.56944444,-86.05111111,7/1/11
AUO,Auburn University Regional,AL,1,30419,"Auburn, AL",51,32.615,-85.43388889,7/1/11
BFM,Mobile Downtown,AL,1,30562,"Mobile, AL",51,30.62666667,-88.06805556,7/1/11
BHM,Birmingham-Shuttlesworth International,AL,1,30599,"Birmingham, AL",51,33.56388889,-86.75222222,7/1/11
DCU,Pryor Field Regional,AL,1,31282,"Decatur, AL",51,34.65416667,-86.94527778,7/1/11
DHN,Dothan Regional,AL,1,31308,"Dothan, AL",51,31.32111111,-85.44944444,7/1/11
EKY,Bessemer Airport,AL,1,31527,"Bessemer, AL",51,33.3125,-86.92638889,7/1/11
ETS,Enterprise Municipal,AL,1,31598,"Enterprise, AL",51,31.29972222,-85.89972222,7/1/11
EUF,Weedon Field,AL,1,31602,"Eufaula, AL",51,31.95138889,-85.12888889,7/1/11
GAD,Northeast Alabama Regional,AL,1,31840,"Gadsden, AL",51,33.97277778,-86.08916667,7/1/11
HAB,Marion County,AL,1,32058,"Hamilton, AL",51,34.12916667,-87.99444444,3/1/79
HSV,Huntsville International-Carl T Jones Field,AL,1,30255,"Huntsville, AL",51,34.63722222,-86.775,7/1/11
HUA,Redstone AAF,AL,1,30255,"Huntsville, AL",51,34.67861111,-86.68472222,1/1/50
IRV,Roy E. Ray,AL,1,32379,"Bayou La Batre, AL",51,30.45527778,-88.21111111,12/1/17
JZW,Evergreen Regional Middleton Field,AL,1,32601,"Evergreen, AL",51,31.415,-87.04333333,12/1/17
LNT,Lanett Municipal,AL,1,33033,"Lanett, AL",51,32.81194444,-85.22972222,12/1/17
MGM,Montgomery Regional,AL,1,33277,"Montgomery, AL",51,32.30055556,-86.39388889,7/1/11
MOB,Mobile Regional,AL,1,30562,"Mobile, AL",51,30.69138889,-88.24277778,7/1/11
MSL,Northwest Alabama Regional,AL,1,33484,"Muscle Shoals, AL",51,34.74527778,-87.61027778,1/1/50
MXF,Maxwell AFB,AL,1,33277,"Montgomery, AL",51,32.38305556,-86.36583333,7/1/11
OZR,Cairns AAF,AL,1,33999,"Ozark, AL",51,31.27583333,-85.71333333,7/1/11
SEM,Craig Field,AL,1,34753,"Selma, AL",51,32.34388889,-86.98777778,3/1/92
SES,Selfield,AL,1,34753,"Selma, AL",51,32.45,-86.95,3/1/92
TCL,Tuscaloosa Regional,AL,1,35153,"Tuscaloosa, AL",51,33.22055556,-87.61138889,7/1/11
TGE,Sharpe Field,AL,1,35185,"Tuskegee, AL",51,32.49194444,-85.77555556,7/1/11
VWA,Headland Municipal,AL,1,35646,"Headland, AL",51,31.36416667,-85.3125,12/1/17
XWU,Perry County,AL,1,35954,"Marion, AL",51,32.55833333,-87.30972222,3/1/91
GUF,Jack Edwards,AL,1,36422,"Gulf Shores, AL",51,30.28972222,-87.67166667,7/1/11
AL4,South Alabama Regional at Bill Benton Field,AL,1,36423,"Andalusia/Opp, AL",51,31.30833333,-86.39222222,7/1/11
AL5,Demopolis Regional,AL,1,36453,"Demopolis, AL",51,32.46388889,-87.95416667,12/1/17
AL6,H. L. Sonny Callahan,AL,1,36487,"Fairhope, AL",51,30.46055556,-87.87694444,4/1/11
MVC,Monroe County Aeroplex,AL,1,36517,"Monroeville, AL",51,31.45805556,-87.35111111,12/1/17
TOI,Troy Municipal at N Kenneth Campbell Field,AL,1,36523,"Troy, AL",51,31.86,-86.01388889,12/1/17
AL7,Walker County Bevill Field,AL,1,36652,"Jasper, AL",51,33.90194444,-87.31388889,1/1/15
AL8,Scottsboro Municipal Word Field,AL,1,36716,"Scottsboro, AL",51,34.68861111,-86.00583333,12/1/17
AL9,Merkel Field Sylacauga Municipal,AL,1,36763,"Sylacauga, AL",51,33.17194444,-86.30555556,10/1/17
01A,Afognak Lake Airport,AK,2,30001,"Afognak Lake, AK",1,58.10944444,-152.9066667,7/1/07
03A,Bear Creek Mining Strip,AK,2,30003,"Granite Mountain, AK",1,65.54805556,-161.0716667,7/1/07
04A,Lik Mining Camp,AK,2,30004,"Lik, AK",1,68.08333333,-163.1666667,7/1/07
05A,Little Squaw Airport,AK,2,30005,"Little Squaw, AK",1,67.57,-148.1838889,8/1/07
06A,Kizhuyak Bay,AK,2,30006,"Kizhuyak, AK",1,57.74527778,-152.8827778,10/1/07
07A,Klawock Seaplane Base,AK,2,30007,"Klawock, AK",1,55.55472222,-133.1016667,4/1/08
08A,Elizabeth Island Airport,AK,2,30008,"Elizabeth Island, AK",1,59.15694444,-151.8291667,6/1/08
09A,Augustin Island,AK,2,30009,"Homer, AK",1,59.36277778,-153.4305556,6/1/08
A01,Blair Lake,AK,2,31517,"Fairbanks, AK",1,64.36361111,-147.3638889,7/1/11
A02,Deadmans Bay Airport,AK,2,30015,"Deadmans Bay, AK",1,57.06666667,-153.9377778,6/1/02
A03,Hallo Bay Airport,AK,2,30016,"Hallo Bay, AK",1,58.4575,-154.0233333,4/1/02
A04,Red Lake Airport,AK,2,30017,"Red Lake, AK",1,57.27722222,-154.3422222,9/1/02
A05,Shell Lake Airport,AK,2,30018,"Shell Lake, AK",1,61.96388889,-151.5558333,11/1/02
A06,Navigator Airstrip,AK,2,30019,"Kougarok, AK",1,65.65555556,-165.3563889,6/1/02
A07,Roland Norton Memorial,AK,2,30020,"Selawik, AK",1,66.76611111,-160.1527778,7/1/11
A08,Pillar Bay Airport,AK,2,30021,"Pillar Bay, AK",1,56.59805556,-134.2427778,1/1/50
A09,Johnstone Point Airport,AK,2,30022,"Johnstone Point, AK",1,60.48166667,-146.5841667,12/1/17
KTH,Tikchik Lodge Airport,AK,2,30023,"Tikchik Lodge, AK",1,59.95555556,-158.4805556,12/1/02
A11,Bell Creek Airport,AK,2,30024,"Bell Creek, AK",1,60.78388889,-159.5402778,12/1/02
A12,Cinnabar Airport,AK,2,30025,"Cinnabar, AK",1,60.78527778,-158.8644444,12/1/02
A13,Mountaintop Mine Airport,AK,2,30026,"Mountaintop Mine, AK",1,61.39027778,-157.9955556,12/1/02
A14,Whitebear Airport,AK,2,30027,"Whitebear, AK",1,61.18888889,-159.8583333,12/1/02
A16,Arley Lake Airport,AK,2,30029,"Arley Lake, AK",1,70.74694444,-155.3608333,3/1/03
A17,Port Vita Airport,AK,2,30030,"Port Vita, AK",1,58.06555556,-153.0725,9/1/02
A18,Kantishna Airport,AK,2,30031,"Kantishna, AK",1,63.54111111,-150.995,12/1/17
A20,Alpine Airstrip,AK,2,30033,"Alpine, AK",1,70.34416667,-150.9447222,8/1/02
A21,Serpentine Airport,AK,2,30034,"Serpentine, AK",1,65.85138889,-164.7027778,5/1/03
A22,Driftwood Bay Airport,AK,2,30035,"Driftwood Bay, AK",1,53.97277778,-166.8569444,1/1/03
A23,Bradley Lake Airport,AK,2,30036,"Bradley Lake, AK",1,59.77611111,-151.9636111,1/1/03
A24,Chilkat Lake Airport,AK,2,30037,"Chilkat Lake, AK",1,59.33166667,-135.8966667,8/1/02
A25,Nugget Creek Airport,AK,2,30038,"Nugget Creek, AK",1,59.28833333,-136.1738889,8/1/02
A26,Ivotuk Airstrip,AK,2,30039,"Ivotuk, AK",1,68.48333333,-155.7333333,5/1/03
A27,Pogo Mines Airport,AK,2,30040,"Pogo Mines, AK",1,64.44,-144.9363889,10/1/03
A28,Ayakulik River Airport,AK,2,30041,"Ayakulik River, AK",1,57.25388889,-154.4222222,1/1/01
A29,Kiluda Bay Airport,AK,2,30042,"Kiluda Bay, AK",1,57.32305556,-153.1494444,1/1/01
A30,Terror Lake Airport,AK,2,30043,"Terror Lake, AK",1,57.96388889,-153.0583333,1/1/01
A31,Selief Bay Airport,AK,2,30044,"Selief Bay, AK",1,58.98277778,-153.1833333,1/1/01
A34,Laura Lake Airport,AK,2,30047,"Laura Lake, AK",1,58.36194444,-152.3122222,7/1/02
A36,Deep Bay Airport,AK,2,30049,"Deep Bay, AK",1,55.56027778,-131.6555556,1/1/01
A37,Kako Airport,AK,2,30050,"Kako, AK",1,61.89888889,-161.4397222,7/1/11
A38,Molly Creek Airport,AK,2,30051,"Molly Creek, AK",1,64.09722222,-143.2666667,1/1/03
A39,Ptarmigan Lake Airport,AK,2,30052,"Ptarmigan Lake, AK",1,61.86611111,-141.1597222,1/1/03
A40,Cape Simpson Airport,AK,2,30053,"Cape Simpson, AK",1,71.05694444,-154.7283333,7/1/02
A42,Teshepkuk Lake Airport,AK,2,30055,"Teshepkuk Lake, AK",1,70.35833333,-153.1966667,1/1/04
A43,Trident Basin Seaplane Base,AK,2,30056,"Kodiak Island, AK",1,57.78083333,-152.3911111,4/1/03
A45,Lake Florence Airport,AK,2,30058,"Lake Florence, AK",1,57.81666667,-134.5833333,7/1/04
A46,Lake Hasselborg Airport,AK,2,30059,"Lake Hasselborg, AK",1,57.7,-134.2666667,7/1/04
A47,Distin Lake Airport,AK,2,30060,"Distin Lake, AK",1,57.61666667,-134.3666667,7/1/04
A48,Port Hobron Airport,AK,2,30061,"Port Hobron, AK",1,57.15,-153.15,7/1/04
A49,Mooseville Airstrip Airport,AK,2,30062,"Mooseville Airstrip, AK",1,70.28444444,-152.2119444,1/1/05
A50,Big Bay Airport,AK,2,30063,"Big Bay, AK",1,58.5625,-152.5961111,1/1/05
A51,Wien Lake Airport,AK,2,30064,"Wien Lake, AK",1,64.35277778,-151.275,1/1/05
A52,Silver Salmon Creek Airport,AK,2,30065,"Silver Salmon Creek, AK",1,59.96388889,-152.6822222,4/1/03
A53,Blear Lake Airport,AK,2,30066,"Blear Lake, AK",1,64.33333333,-147.5,6/1/05
A54,Cannery Bay Airport,AK,2,30067,"Cannery Bay, AK",1,53.68333333,-166.75,1/1/05
A56,Johnsons Landing,AK,2,30069,"Bear Lake, AK",1,56.03666667,-160.2661111,3/1/05
A57,International Seafoods Airport,AK,2,36440,"International Seafoods, AK",1,58.26666667,-157.5333333,10/1/01
A58,Cosna River Airport,AK,2,30071,"Cosna River, AK",1,64.5,-151.6666667,4/1/05
A59,Ivatuk Airport,AK,2,30072,"Ivatuk, AK",1,68.48777778,-155.7575,4/1/05
A61,Cape Sarichef Airport,AK,2,30074,"Cape Sarichef, AK",1,54.5825,-164.9144444,7/1/11
A62,Taylor Mountain,AK,2,30075,"Taylor Mountain Mine, AK",1,60.86777778,-157.3919444,4/1/05
A63,Coal Creek,AK,2,30076,"Yukon Charley Rivvers, AK",1,65.31166667,-143.1341667,12/1/17
A65,Karluk Portage Airport,AK,2,30078,"Karluk Portage, AK",1,57.53833333,-154.1644444,6/1/05
A66,Hope Airport,AK,2,30079,"Hope, AK",1,60.90722222,-149.6227778,12/1/17
A67,Viekoda Bay Airport,AK,2,30080,"Viekoda Bay, AK",1,57.84944444,-153.1152778,7/1/05
A69,Cathedral Strip,AK,2,30082,"Cold Bay, AK",1,55.74,-162.1252778,7/1/05
A70,Village Islands Airport,AK,2,30083,"Village Islands, AK",1,57.77416667,-153.5447222,10/1/05
A71,Bear Cove Farm,AK,2,30009,"Homer, AK",1,59.73833333,-151.03,4/1/05
A72,Chinitna Bay Airport,AK,2,30085,"Chinitna Bay, AK",1,59.83333333,-152.5847222,4/1/05
A73,McKinley National Park,AK,2,30086,"McKinley Park, AK",1,63.7325,-148.9105556,1/1/50
A74,Dog Fish Bay,AK,2,32649,"Nanwalek, AK",1,59.24111111,-151.8772222,4/1/05
A75,Malina Bay Airport,AK,2,30088,"Malina Bay, AK",1,58.17194444,-152.8941667,10/1/05
A76,Red Fox Bay Airport,AK,2,30089,"Red Fox Bay, AK",1,58.46444444,-152.5930556,10/1/05
A77,Shearwater Airport,AK,2,30090,"Shearwater, AK",1,57.34333333,-152.8972222,10/1/05
A78,Lake,AK,2,30053,"Cape Simpson, AK",1,71.03,-154.4436111,10/1/05
A79,Cape Simpson No. 1,AK,2,30053,"Cape Simpson, AK",1,71.50166667,-154.0338889,10/1/05
A80,Cape Simpson No. 7,AK,2,30053,"Cape Simpson, AK",1,70.57388889,-155.3213889,10/1/05
A81,Cape Simpson #1,AK,2,30094,"Aglaq, AK",1,70.66277778,-154.8366667,1/1/06
A82,Nikiski Private Airstrip,AK,2,30095,"Nikiski, AK",1,60.69027778,-151.2888889,1/1/06
A83,Petrof Point Airport,AK,2,30096,"Petrof Point, AK",1,59.37638889,-150.765,3/1/06
A84,Denali West Lodge Private,AK,2,30097,"Denali, AK",1,63.75555556,-147.93,6/1/06
A85,Big River Airport,AK,2,30098,"Big River, AK",1,61.85944444,-154.2766667,10/1/02
A87,Carry Inlet Airport,AK,2,30100,"Carry Inlet, AK",1,58.58305556,-152.4458333,7/1/06
A89,Montague Island Airport,AK,2,30102,"Montague Island, AK",1,59.925,-147.5166667,10/1/06
A90,Shannon Pond Airport,AK,2,30103,"Shannon Pond, AK",1,59.03916667,-158.4638889,1/1/07
A91,Omalik Lagoon Airport,AK,2,30104,"Omalik Lagoon, AK",1,69.15555556,-163.4972222,1/1/07
A92,Omolik Lagoon Airport,AK,2,30105,"Omolik Lagoon, AK",1,69.14805556,-163.5102778,4/1/07
A93,Bradley Lake Project Airport,AK,2,30106,"Bradley Lake Project, AK",1,59.79166667,-151.2666667,4/1/07
A94,Ice Strip,AK,2,30107,"Barrow, AK",1,70.57416667,-155.3180556,1/1/07
A95,Ice Strip,AK,2,30107,"Barrow, AK",1,70.31194444,-153.2491667,3/1/07
A96,Ice Strip,AK,2,30107,"Barrow, AK",1,70.98083333,-157.095,3/1/07
A97,Akulik Air Strip,AK,2,30110,"Akulik, AK",1,68.98555556,-163.4797222,6/1/07
A98,Deadfall Air Strip,AK,2,30111,"Deadfall, AK",1,69.17083333,-163.2563889,7/1/07
A99,Eagle Creek Airport,AK,2,30112,"Eagle Creek, AK",1,68.67666667,-162.6469444,7/1/07
AA1,Ice Kong,AK,2,30113,"Bethel, AK",1,59.95277778,-162.6169444,3/1/09
AA4,Glacier Split,AK,2,30116,"Kachemak Bay, AK",1,59.63333333,-151.2083333,6/1/09
AA5,Selby Lake Airport,AK,2,30117,"Selby Lake, AK",1,66.95583333,-155.615,1/1/10
ABL,Ambler River,AK,2,30139,"Ambler, AK",1,67.0875,-157.8458333,1/1/50
ADK,Adak,AK,2,30165,"Adak Island, AK",1,51.88361111,-176.6425,12/1/17
ADQ,Kodiak Airport,AK,2,30070,"Kodiak, AK",1,57.74972222,-152.4938889,12/1/17
AED,Aleneva Airport,AK,2,30176,"Aleneva, AK",1,58.03333333,-152.9,3/1/96
AET,Allakaket Airport,AK,2,30184,"Allakaket, AK",1,66.55194444,-152.6222222,7/1/11
AGN,Angoon Seaplane Base,AK,2,30204,"Angoon, AK",1,57.50388889,-134.5833333,1/1/50
AHT,Amchitka,AK,2,30219,"Amchitka Island, AK",1,51.37861111,179.2586111,1/1/50
AIB,Anita Bay Airport,AK,2,30222,"Anita Bay, AK",1,56.19,-132.4458333,6/1/88
AIN,Wainwright Airport,AK,2,30225,"Wainwright, AK",1,70.63805556,-159.9947222,7/1/11
AKB,Atka Airport,AK,2,30237,"Atka, AK",1,52.22055556,-174.2061111,7/1/11
AKI,Akiak Airport,AK,2,30241,"Akiak, AK",1,60.90277778,-161.2305556,7/1/11
AKK,Akhiok Airport,AK,2,30243,"Akhiok, AK",1,56.93861111,-154.1825,7/1/11
AKN,King Salmon Airport,AK,2,30245,"King Salmon, AK",1,58.67638889,-156.6486111,7/1/11
AKP,Anaktuvuk Pass Airport,AK,2,30247,"Anaktuvuk Pass, AK",1,68.13361111,-151.7433333,7/1/11
ALZ,Alitak Seaplane Base,AK,2,30278,"Lazy Bay, AK",1,56.89583333,-154.2458333,1/1/50
ANC,Ted Stevens Anchorage International,AK,2,30299,"Anchorage, AK",1,61.17416667,-149.9980556,12/1/17
ANI,Aniak Airport,AK,2,30304,"Aniak, AK",1,61.58166667,-159.5430556,1/1/50
ANN,Annette Island,AK,2,30307,"Annette, AK",1,55.04222222,-131.5708333,12/1/17
ANV,Anvik Airport,AK,2,30313,"Anvik, AK",1,62.64722222,-160.19,7/1/11
AOS,Amook Bay Airport,AK,2,30324,"Amook Bay, AK",1,57.45472222,-153.8130556,12/1/81
AQY,Girdwood Airport,AK,2,30344,"Girdwood, AK",1,60.96888889,-149.1194444,12/1/17
ARC,Arctic Village Airport,AK,2,30349,"Arctic Village, AK",1,68.11472222,-145.5794444,7/1/11
ATK,Atqasuk Edward Burnell Sr. Memorial,AK,2,30396,"Atqasuk, AK",1,70.46722222,-157.4355556,12/1/17
ATT,Atmautluak Airport,AK,2,30405,"Atmautluak, AK",1,60.86777778,-162.2741667,12/1/17
ATU,Casco Cove CGS,AK,2,30406,"Attu, AK",1,52.8325,173.1755556,7/1/11
AUK,Alakanuk Airport,AK,2,30416,"Alakanuk, AK",1,62.68305556,-164.7222222,12/1/17
BAR,Baker AAF,AK,2,30487,"Baker Island, AK",1,55.36666667,-133.6,12/1/92
BCC,Bear Creek Airport,AK,2,30057,"Bear Creek, AK",1,57.6175,-155.8672222,4/1/95
BET,Bethel Airport,AK,2,30113,"Bethel, AK",1,60.77861111,-161.8372222,7/1/11
BFB,Blue Fox Bay Airport,AK,2,30556,"Blue Fox Bay, AK",1,58.18333333,-152.1333333,9/1/95
BGQ,Big Lake Airport,AK,2,30580,"Big Lake, AK",1,61.53472222,-149.8125,12/1/17
BIC,Big Creek Airport,AK,2,30612,"Big Creek, AK",1,57.66666667,-157.5833333,3/1/88
BIG,Allen AAF,AK,2,30616,"Big Delta, AK",1,63.99472222,-145.7202778,7/1/11
BKC,Buckland Airport,AK,2,30640,"Buckland, AK",1,65.98166667,-161.1491667,7/1/11
BKF,Brooks Lake Airport,AK,2,30642,"Brooks Lake, AK",1,58.6,-156.2333333,1/1/50
BMX,Big Mountain AFS,AK,2,30692,"Big Mountain, AK",1,59.36111111,-155.2588889,7/1/11
BNF,Warm Spring Bay Seaplane Base,AK,2,30697,"Baranof, AK",1,57.08916667,-134.8313889,1/1/50
BQV,Bartlett Cove Seaplane Base,AK,2,30735,"Bartlett Cove, AK",1,58.45527778,-135.8852778,2/1/50
BRW,Wiley Post/Will Rogers Memorial,AK,2,30107,"Barrow, AK",1,71.28472222,-156.7686111,12/1/17
BSW,Boswell Bay Airport,AK,2,30769,"Boswell Bay, AK",1,60.42305556,-146.1458333,7/1/11
BTI,Barter Island Airport,AK,2,30775,"Barter Island, AK",1,70.11305556,-143.6536111,12/1/17
BTT,Bettles Airport,AK,2,30783,"Bettles, AK",1,66.91388889,-151.5291667,7/1/11
BVD,Beaver Inlet Seaport,AK,2,30809,"Beaver Inlet, AK",1,53.8325,-166.3025,3/1/90
BYA,Boundary Airport,AK,2,30834,"Boundary, AK",1,64.07833333,-141.1133333,7/1/11
CBA,Corner Bay Airport,AK,2,30886,"Corner Bay, AK",1,57.73777778,-135.1255556,3/1/78
CDB,Cold Bay Airport,AK,2,30082,"Cold Bay, AK",1,55.20583333,-162.7263889,12/1/17
CDL,Candle 2,AK,2,30923,"Candle, AK",1,65.90777778,-161.9263889,7/1/11
CDV,Merle K Mudhole Smith,AK,2,30913,"Cordova, AK",1,60.49166667,-145.4775,7/1/11
CEM,Central Airport,AK,2,30938,"Central, AK",1,65.57388889,-144.7808333,7/1/11
CEX,Chena Hot Springs Airport,AK,2,30948,"Chena Hot Springs, AK",1,65.05194444,-146.0475,7/1/11
CFA,Coffee Point Airport,AK,2,30951,"Coffee Point, AK",1,58.21666667,-157.5,3/1/90
CGA,Craig Seaplane Base,AK,2,30961,"Craig, AK",1,55.47916667,-133.1461111,1/1/50
CHP,Circle Hot Springs Airport,AK,2,30991,"Circle Hot Springs, AK",1,65.48583333,-144.6116667,12/1/17
CHU,Chuathbaluk Airport,AK,2,30996,"Chuathbaluk, AK",1,61.57916667,-159.2155556,7/1/11
CIK,Chalkyitsik Airport,AK,2,31007,"Chalkyitsik, AK",1,66.645,-143.74,7/1/11
CIL,Council Airport,AK,2,31008,"Council, AK",1,64.89666667,-163.7036111,12/1/17
CIV,Chomley Airport,AK,2,31014,"Chomley, AK",1,55.24777778,-132.3236111,3/1/90
CJI,Crafton Island Airport,AK,2,31021,"Crafton Island, AK",1,60.50277778,-147.9402778,1/1/50
CKD,Crooked Creek Airport,AK,2,31028,"Crooked Creek, AK",1,61.86777778,-158.135,7/1/11
CKU,Cordova Municipal,AK,2,30913,"Cordova, AK",1,60.54361111,-145.7258333,12/1/17
CKX,Chicken Airport,AK,2,31036,"Chicken, AK",1,64.06666667,-141.9513889,12/1/17
CLF,Clear Mews,AK,2,31043,"Clear, AK",1,64.30166667,-149.1177778,1/1/50
CLP,Clarks Point Airport,AK,2,31053,"Clarks Point, AK",1,58.83361111,-158.5294444,7/1/11
CSP,Cape Spencer C.G. Helipad,AK,2,31154,"Cape Spencer, AK",1,58.19916667,-136.6388889,1/1/90
CXC,Chitina Airport,AK,2,31213,"Chitina, AK",1,61.58333333,-144.4297222,12/1/17
CXF,Coldfoot Airport,AK,2,31214,"Coldfoot, AK",1,67.25222222,-150.2038889,7/1/11
CYF,Chefornak Airport,AK,2,31227,"Chifornak, AK",1,60.13694444,-164.2791667,12/1/17
CYM,Chatham Airport,AK,2,31230,"Chatham, AK",1,57.51527778,-134.9444444,1/1/50
CYT,Yakataga,AK,2,31234,"Cape Yakataga, AK",1,60.08083333,-142.4955556,12/1/17
CZC,Copper Center 2,AK,2,31238,"Copper Center, AK",1,61.94111111,-145.2941667,7/1/96
CZF,Cape Romanzof LRRS,AK,2,31241,"Cape Romanzof, AK",1,61.78027778,-166.0386111,3/1/17
CZN,Chisana Airport,AK,2,31245,"Chisana, AK",1,62.07166667,-142.0494444,12/1/17
CZO,Chistochina Airport,AK,2,31246,"Chistochina, AK",1,62.56222222,-144.6725,12/1/17
CZP,Cape Pole Airport,AK,2,31247,"Cape Pole, AK",1,55.965,-133.7933333,1/1/50
DCK,Dahl Creek Airport,AK,2,31280,"Dahl Creek, AK",1,66.9425,-156.8913889,12/1/17
DGB,Danger Bay Airport,AK,2,31299,"Danger Bay, AK",1,58.13333333,-152.55,3/1/92
DIO,Diomede Heliport,AK,2,31317,"Diomede Island, AK",1,65.75861111,-168.9530556,7/1/11
DJN,Delta Junction Airport,AK,2,31327,"Delta Junction, AK",1,64.05,-145.7225,12/1/17
DLG,Dillingham Airport,AK,2,31336,"Dillingham, AK",1,59.04472222,-158.5055556,7/1/11
DLO,Dolomi Airport,AK,2,31341,"Dolomi, AK",1,55.12222222,-132.05,12/1/87
DNC,Duncan Canal Airport,AK,2,31353,"Duncan Canal, AK",1,56.75694444,-133.2216667,1/1/50
DOF,Dora Bay Airport,AK,2,31367,"Dora Bay, AK",1,55.23333333,-132.2166667,12/1/87
AA8,Badami,AK,2,30073,"Deadhorse, AK",1,70.1375,-147.0305556,12/1/97
DQH,Alpine Airstrip,AK,2,30033,"Alpine, AK",1,70.34416667,-150.9447222,7/1/11
DQL,Lake Hood Strip,AK,2,30299,"Anchorage, AK",1,61.18666667,-149.9652778,7/1/11
DQU,Neets Bay,AK,2,31401,"Ketchikan, AK",1,55.77888889,-131.6013889,9/1/00
DQV,Glacier Point,AK,2,31402,"Haines, AK",1,59.1025,-135.3822222,9/1/00
DQX,Tsui River Airport,AK,2,31404,"Tsui River, AK",1,60.07472222,-143.0866667,3/1/01
DQZ,Platinum Mine,AK,2,31406,"Platinum, AK",1,58.91166667,-161.7138889,6/1/02
DRF,Drift River Airport,AK,2,31410,"Drift River, AK",1,60.58888889,-152.1619444,7/1/11
DRG,Deering Airport,AK,2,31411,"Deering, AK",1,66.06916667,-162.7669444,12/1/17
DUT,Unalaska Airport,AK,2,31445,"Unalaska, AK",1,53.89888889,-166.545,12/1/17
EAA,Eagle Airport,AK,2,31463,"Eagle, AK",1,64.77805556,-141.1497222,7/1/11
EAG,Eagle Creek Strip,AK,2,31464,"Noatak, AK",1,67.56222222,-162.9752778,4/1/09
EDA,Edna Bay Airport,AK,2,31484,"Edna Bay, AK",1,55.93638889,-133.6555556,1/1/50
EDF,Elmendorf AFB,AK,2,30299,"Anchorage, AK",1,61.25138889,-149.8063889,7/1/11
EEK,Eek Airport,AK,2,31492,"Eek, AK",1,60.21361111,-162.0438889,7/1/11
EFB,Eight Fathom Bight Airport,AK,2,31494,"Eight Fathom Bight, AK",1,58,-135.7333333,12/1/87
EGA,Chenega Airport,AK,2,31501,"Chenega, AK",1,60.28333333,-148.0833333,1/1/50
EGX,Egegik Airport,AK,2,31511,"Egegik, AK",1,58.18555556,-157.3755556,7/1/11
EHM,Cape Newenham LRRS,AK,2,31512,"Cape Newenham, AK",1,58.64805556,-162.0630556,12/1/17
EHR,Eagle Harbor Airport,AK,2,31513,"Eagle Harbor, AK",1,57.41666667,-152.7166667,1/1/50
EIL,Eielson AFB,AK,2,31517,"Fairbanks, AK",1,64.66555556,-147.1013889,7/1/11
ELI,Elim Airport,AK,2,31535,"Elim, AK",1,64.615,-162.2705556,7/1/11
ELV,Elfin Cove Seaplane Base,AK,2,31545,"Elfin Cove, AK",1,58.2,-136.3166667,1/1/50
ELW,Ellamar Seaplane Base,AK,2,31546,"Ellamar, AK",1,60.89333333,-146.7083333,1/1/50
EMK,Emmonak Airport,AK,2,31550,"Emmonak, AK",1,62.78611111,-164.4908333,1/1/50
ENA,Kenai Municipal,AK,2,31555,"Kenai, AK",1,60.57333333,-151.2447222,7/1/11
ENN,Nenana Municipal,AK,2,31559,"Nenana, AK",1,64.54722222,-149.0738889,7/1/11
EVC,Eva Creek Airport,AK,2,31606,"Eva Creek, AK",1,64.04194444,-148.8630556,7/1/11
EXI,Excursion Inlet Seaplane Base,AK,2,31619,"Excursion Inlet, AK",1,58.42083333,-135.4472222,1/1/02
FAI,Fairbanks International,AK,2,31517,"Fairbanks, AK",1,64.815,-147.8563889,7/1/11
FAK,False Island Airport,AK,2,31632,"False Island, AK",1,57.51666667,-135.2166667,3/1/90
FAU,Fairmount Island Airport,AK,2,31639,"Fairmount Island, AK",1,60.89611111,-147.4466667,4/1/74
FBK,Ladd AAF,AK,2,31517,"Fairbanks, AK",1,64.8375,-147.6144444,7/1/11
FIC,Fire Cove Airport,AK,2,31674,"Fire Cove, AK",1,55.77777778,-131.5375,12/1/87
FLJ,Falls Bay Airport,AK,2,31696,"Falls Bay, AK",1,60.51666667,-148,6/1/85
FLT,Flat Airport,AK,2,31702,"Flat, AK",1,62.45277778,-157.9891667,7/1/11
FNR,Funter Bay,AK,2,31720,"Funter Bay Alaska, AK",1,58.25,-134.9,1/1/50
FQA,Patching Lake Airport,AK,2,31734,"Patching Lake, AK",1,55.60611111,-131.4833333,6/1/01
FQC,Lilly Lake,AK,2,30070,"Kodiak, AK",1,57.80555556,-152.3805556,6/1/01
FQD,Trident Volcano,AK,2,36441,"Katmai National Park, AK",1,58.235,-155.1036111,6/1/01
FQE,Annex Creek Airport,AK,2,31738,"Annex Creek, AK",1,58.31333333,-134.1041667,6/1/01
FQF,Davidson Creek Airport,AK,2,31739,"Davidson Creek, AK",1,58.35277778,-133.9913889,6/1/01
FQG,Snettisham Airport,AK,2,31740,"Snettisham, AK",1,58.13444444,-133.7294444,12/1/17
FQH,Fire Island Airport,AK,2,31741,"Fire Island, AK",1,61.16833333,-150.1605556,7/1/11
FQJ,Greens Creek Airport,AK,2,31743,"Greens Creek, AK",1,58.09861111,-134.76,6/1/01
FQK,Gull Cove Airport,AK,2,31744,"Gull Cove, AK",1,58.21472222,-136.1563889,6/1/01
FQN,Karta Lake Airport,AK,2,31747,"Karta Lake, AK",1,55.56222222,-132.6305556,4/1/01
FQO,Manzanita Lake Airport,AK,2,31748,"Manzanita Lake, AK",1,55.56666667,-131.0563889,4/1/01
FQP,Shrimp Bay Airport,AK,2,31749,"Shrimp Bay, AK",1,55.83444444,-131.4847222,4/1/01
FQQ,Dry Bay Airport,AK,2,31750,"Dry Bay, AK",1,59.14666667,-138.5636111,9/1/01
FQR,Josephine Lake Airport,AK,2,31751,"Josephine Lake, AK",1,55.24361111,-132.5733333,4/1/01
FQV,Volcano Bay Airport,AK,2,31755,"Volcano Bay, AK",1,53.81444444,-167.1194444,3/1/02
FQW,Fort Glenn Airport,AK,2,31756,"Fort Glenn, AK",1,53.36666667,-167.8833333,3/1/02
FQX,Babe Islands Airport,AK,2,31757,"Babe Islands, AK",1,55.21027778,-132.1319444,3/1/02
FQY,Kahli Cove Airport,AK,2,31758,"Kahli Cove, AK",1,55.92638889,-133.2527778,3/1/02
FRP,Fresh Water Bay Airport,AK,2,31768,"Fresh Water Bay, AK",1,57.85,-134.9833333,12/1/87
FTL,Fortuna Ledge Airport,AK,2,31722,"Fortuna Ledge, AK",1,61.86833333,-162.0680556,7/1/78
FVA,Osprey Lodge Airport,AK,2,31797,"Osprey Lodge, AK",1,61.11638889,-155.3113889,6/1/02
FVQ,Donlin Creek Mine Airport,AK,2,31813,"Donlin Creek Mine, AK",1,62.07194444,-158.2041667,12/1/02
FVW,Golden Creek Mine Airport,AK,2,31819,"Golden Creek Mine, AK",1,65.28333333,-153,12/1/96
FVX,Grace Harbor Airport,AK,2,31820,"Grace Harbor, AK",1,54.91666667,-132.9166667,12/1/97
FVY,Unuk River Airport,AK,2,31821,"Unuk River, AK",1,56.08333333,-131.9666667,12/1/97
FVZ,Inigok,AK,2,30073,"Deadhorse, AK",1,70.00388889,-153.0775,12/1/97
FWL,Farewell Airport,AK,2,31825,"Farewell, AK",1,62.50916667,-153.8902778,12/1/17
A35,Bullen Point AFS,AK,2,31828,"Kaktovik, AK",1,70.17277778,-146.8361111,7/1/02
FYU,Fort Yukon Airport,AK,2,31833,"Fort Yukon, AK",1,66.5725,-145.2463889,12/1/17
GAL,Edward G. Pitka Sr.,AK,2,31844,"Galena, AK",1,64.73611111,-156.9375,7/1/11
GAM,Gambell Airport,AK,2,31845,"Gambell, AK",1,63.76666667,-171.7327778,7/1/11
GBH,Galbraith Lake Airport,AK,2,31859,"Galbraith Lake, AK",1,68.47972222,-149.49,7/1/11
GDH,Golden Horn Lodge Seaplane Base,AK,2,31873,"Golden Horn Lodge, AK",1,59.74694444,-158.8747222,1/1/90
GEK,Ganes Creek Airport,AK,2,31885,"Ganes Creek, AK",1,62.97555556,-156.5133333,7/1/95
GFB,Togiak Fish Airport,AK,2,31896,"Togiak Fish, AK",1,59.05,-160.2833333,3/1/91
GKN,Gulkana Airport,AK,2,31924,"Gulkana, AK",1,62.155,-145.4544444,7/1/11
GLV,Golovin Airport,AK,2,31941,"Golovin, AK",1,64.55055556,-163.0072222,7/1/11
GMT,Granite Mountain AS,AK,2,30003,"Granite Mountain, AK",1,65.40222222,-161.2813889,7/1/11
GNU,Goodnews,AK,2,31952,"Goodnews Bay, AK",1,59.11777778,-161.5736111,12/1/17
GST,Gustavus Airport,AK,2,31997,"Gustavus, AK",1,58.42527778,-135.7075,7/1/11
HBC,Hanus Bay Airport,AK,2,32076,"Hanus Bay, AK",1,57.41666667,-135.0333333,10/1/74
HBH,Hobart Bay Airport,AK,2,32079,"Hobart Bay, AK",1,57.4,-133.4666667,9/1/84
HBY,Hood Bay Airport,AK,2,32084,"Hood Bay, AK",1,57.38194444,-134.3952778,1/1/50
HCB,Shoal Cove Airport,AK,2,32086,"Shoal Cove, AK",1,55.45,-131.2833333,1/1/95
HCR,Holy Cross Airport,AK,2,32087,"Holy Cross, AK",1,62.18833333,-159.775,7/1/11
HDA,Hidden Falls Airport,AK,2,32088,"Hidden Falls, AK",1,57.21666667,-134.8833333,9/1/87
HED,Herendeen Bay,AK,2,32098,"Herendeen, AK",1,55.80138889,-160.8991667,7/1/11
HGZ,Hogatza Airport,AK,2,32122,"Hogatza, AK",1,66.19166667,-155.6688889,4/1/95
HKB,Healy River,AK,2,32141,"Healy, AK",1,63.8675,-148.9688889,12/1/89
HMS,Homeshore Airport,AK,2,32165,"Homeshore, AK",1,58.29444444,-135.3472222,3/1/91
HNH,Hoonah Airport,AK,2,32171,"Hoonah, AK",1,58.09611111,-135.4088889,12/1/17
HNS,Haines Airport,AK,2,31402,"Haines, AK",1,59.24388889,-135.5236111,7/1/11
HOL,Holikachuk Airport,AK,2,32183,"Holikachuk, AK",1,62.91055556,-159.5277778,1/1/50
HOM,Homer Airport,AK,2,30009,"Homer, AK",1,59.645,-151.4858333,12/1/17
HPB,Hooper Bay Airport,AK,2,32195,"Hooper Bay, AK",1,61.52388889,-166.1466667,7/1/11
HSL,Huslia Airport,AK,2,32214,"Huslia, AK",1,65.69777778,-156.3513889,7/1/11
HUS,Hughes Airport,AK,2,32235,"Hughes, AK",1,66.03916667,-154.2647222,7/1/11
HWI,Hawk Inlet Airport,AK,2,32248,"Hawk Inlet, AK",1,58.13333333,-134.75,1/1/50
HYG,Hydaburg Seaplane Base,AK,2,32252,"Hydaburg, AK",1,55.20666667,-132.8266667,1/1/50
HYL,Hollis Seaplane Base,AK,2,32253,"Hollis, AK",1,55.48194444,-132.6444444,1/1/50
IAN,Bob Baker Memorial,AK,2,32268,"Kiana, AK",1,66.97583333,-160.4366667,7/1/11
ICY,Icy Bay Airport,AK,2,32279,"Icy Bay, AK",1,59.96888889,-141.6616667,7/1/11
IGG,Igiugig Airport,AK,2,32294,"Igiugig, AK",1,59.32416667,-155.9016667,7/1/11
IKO,Nikolski AS,AK,2,32315,"Nikolski, AK",1,52.94166667,-168.8491667,7/1/11
ILI,Iliamna Airport,AK,2,32321,"Iliamna, AK",1,59.75555556,-154.9177778,7/1/11
IRC,Circle City,AK,2,32370,"Circle, AK",1,65.82805556,-144.0761111,12/1/17
ISL,Isabel Pass Airport,AK,2,32387,"Isabel Pass, AK",1,63.5,-145.0333333,1/1/90
JLA,Quartz Creek,AK,2,32509,"Cooper Lodge, AK",1,60.48416667,-149.7227778,12/1/17
JNU,Juneau International,AK,2,32523,"Juneau, AK",1,58.35472222,-134.5783333,12/1/17
JSE,Juneau Seaplane Base,AK,2,32523,"Juneau, AK",1,58.30166667,-134.4244444,1/1/50
JZE,Trading Bay Production,AK,2,30114,"Trading Bay, AK",1,60.81555556,-151.7988889,12/1/94
JZM,Hog River Airport,AK,2,32591,"Hog River, AK",1,66.17611111,-155.6847222,12/1/17
KAE,Kake Seaplane Base,AK,2,32610,"Kake, AK",1,56.97333333,-133.9438889,1/1/50
KAL,Kaltag Airport,AK,2,32615,"Kaltag, AK",1,64.31888889,-158.7413889,1/1/50
KBC,Birch Creek Airport,AK,2,32621,"Birch Creek, AK",1,66.27444444,-145.8180556,12/1/17
KBE,Bell Island Hot Springs Seaplane Base,AK,2,32622,"Bell Island, AK",1,55.92944444,-131.57,1/1/50
KBK,Klag Bay Airport,AK,2,32624,"Klag Bay, AK",1,57.64472222,-136.0930556,3/1/86
KCC,Coffman Cove Seaplane Base,AK,2,32633,"Coffman Cove, AK",1,56.03333333,-132.9166667,1/1/50
KCG,Chignik Bay Airport,AK,2,32631,"Chignik, AK",1,56.31138889,-158.3733333,2/1/16
KCL,Chignik Lagoon Airport,AK,2,32631,"Chignik, AK",1,56.31083333,-158.5344444,12/1/17
KCN,Chernofski Harbor,AK,2,32639,"Chernofski, AK",1,53.4,-167.55,1/1/50
KCQ,Chignik Lake,AK,2,32631,"Chignik, AK",1,56.25555556,-158.7777778,12/1/17
KCR,Colorado Creek Airport,AK,2,32642,"Colorado Creek, AK",1,63.57111111,-156.0052778,1/1/50
KDK,Kodiak Municipal,AK,2,30070,"Kodiak, AK",1,57.80583333,-152.3738889,7/1/11
KEB,Nanwalek Airport,AK,2,32649,"Nanwalek, AK",1,59.35222222,-151.9252778,7/1/11
KEK,Ekwok Airport,AK,2,32653,"Ekwok, AK",1,59.35694444,-157.4711111,12/1/17
KFP,False Pass Airport,AK,2,32663,"False Pass, AK",1,54.84777778,-163.4072222,12/1/17
KGK,Koliganek Airport,AK,2,32671,"Koliganek, AK",1,59.72666667,-157.2602778,12/1/17
KGX,Grayling Airport,AK,2,32676,"Grayling, AK",1,62.89222222,-160.0663889,12/1/17
KGZ,Glacier Creek Airport,AK,2,32677,"Glacier Creek, AK",1,61.455,-142.3808333,7/1/11
KIB,Ivanof Bay Seaplane Base,AK,2,32686,"Ivanof Bay, AK",1,55.9,-159.4833333,1/1/50
KKA,Koyuk Alfred Adams,AK,2,32704,"Koyuk, AK",1,64.93944444,-161.1541667,7/1/11
KKB,Kitoi Bay Airport,AK,2,32705,"Kitoi Bay, AK",1,58.19166667,-152.35,1/1/50
KKH,Kongiganak Airport,AK,2,32708,"Kongiganak, AK",1,59.96166667,-162.8805556,12/1/17
KKI,Akiachak Airport,AK,2,32709,"Akiachak, AK",1,60.91388889,-161.4933333,12/1/17
KKK,Kalakaket Creek AS,AK,2,32711,"Kalakaket, AK",1,64.42444444,-156.8433333,7/1/11
KKL,Karluk Lake Seaplane Base,AK,2,32712,"Karluk Lake, AK",1,57.36777778,-154.0252778,1/1/50
KKU,Ekuk Airport,AK,2,32716,"Ekuk, AK",1,58.81111111,-158.5588889,7/1/11
KLG,Kalskag Airport,AK,2,32719,"Kalskag, AK",1,61.53583333,-160.3455556,12/1/17
KLL,Levelock Airport,AK,2,32720,"Levelock, AK",1,59.12694444,-156.86,12/1/17
KLN,Larsen Bay Airport,AK,2,32721,"Larsen Bay, AK",1,57.535,-153.9766667,7/1/11
KLP,Kelp Bay Airport,AK,2,32723,"Kelp Bay, AK",1,57.55,-134.8666667,7/1/95
KLW,Klawock Airport,AK,2,30007,"Klawock, AK",1,55.57916667,-133.0761111,1/1/50
KMO,Manokatak Seaplane Base,AK,2,32737,"Manokotak, AK",1,58.98166667,-159.0566667,1/1/50
KMY,Moser Bay Airport,AK,2,32743,"Moser Bay, AK",1,57.02638889,-154.1436111,1/1/50
KNK,Kokhanok Airport,AK,2,32748,"Kokhanok, AK",1,59.43333333,-154.8025,3/1/76
KNW,New Stuyahok Airport,AK,2,32755,"New Stuyahok, AK",1,59.45166667,-157.3730556,7/1/11
KOT,Kotlik Airport,AK,2,32769,"Kotlik, AK",1,63.03055556,-163.5327778,7/1/11
KOY,Olga Bay Seaplane Base,AK,2,32771,"Olga Bay, AK",1,57.16222222,-154.2275,1/1/50
KOZ,Ouzinkie Airport,AK,2,32772,"Ouzinkie, AK",1,57.94222222,-152.465,7/1/11
KPB,Point Baker Airport,AK,2,32773,"Point Baker, AK",1,56.35,-133.6166667,1/1/50
KPC,Port Clarence CGS,AK,2,32774,"Port Clarence, AK",1,65.25333333,-166.8575,7/1/11
KPH,Pauloff Harbor Airport,AK,2,32775,"Pauloff Harbor, AK",1,54.45,-162.6833333,1/1/50
KPK,Parks Seaplane Base,AK,2,32777,"Parks, AK",1,57.43361111,-153.9,1/1/50
KPM,Napamute Airport,AK,2,32778,"Napamute, AK",1,61.53138889,-158.6408333,1/1/50
KPN,Kipnuk Airport,AK,2,32779,"Kipnuk, AK",1,59.93166667,-164.0280556,12/1/17
KPR,Port Williams Airport,AK,2,32782,"Port Williams, AK",1,58.43333333,-152.5833333,1/1/50
KPV,Perryville Airport,AK,2,32784,"Perryville, AK",1,55.90666667,-159.1608333,7/1/11
KPY,Port Bailey Airport,AK,2,32785,"Port Bailey, AK",1,57.93333333,-153.0333333,1/1/50
KQA,Akutan Airport,AK,2,32786,"Akutan, AK",1,54.13333333,-165.7833333,1/1/50
KSM,St. Mary's Airport,AK,2,32807,"St. Mary's, AK",1,62.06083333,-163.3019444,7/1/11
KSR,Federal No.1,AK,2,32812,"Sandy River, AK",1,56.24444444,-160.3863889,6/1/02
KTB,Thorne Bay Seaplane Base,AK,2,32815,"Thorne Bay, AK",1,55.68833333,-132.535,1/1/50
KTN,Ketchikan International,AK,2,31401,"Ketchikan, AK",1,55.35416667,-131.7111111,7/1/11
KTS,Brevig Mission Airport,AK,2,32822,"Brevig Mission, AK",1,65.33138889,-166.4658333,7/1/11
KUK,Kasigluk Airport,AK,2,32831,"Kasigluk, AK",1,60.87333333,-162.5244444,7/1/11
KUW,Kugururok River Airport,AK,2,32837,"Kugururok River, AK",1,68.30694444,-161.4,7/1/02
KVC,King Cove Airport,AK,2,32841,"King Cove, AK",1,55.11638889,-162.2661111,7/1/11
KVL,Kivalina Airport,AK,2,32844,"Kivalina, AK",1,67.73611111,-164.5636111,7/1/11
KWF,Waterfall Seaplane Base,AK,2,32847,"Waterfall, AK",1,55.29722222,-133.2405556,1/1/50
KWK,Kwigillingok Airport,AK,2,32851,"Kwigillingok, AK",1,59.87555556,-163.1680556,12/1/17
KWN,Quinhagak Airport,AK,2,32853,"Quinhagak, AK",1,59.755,-161.8452778,7/1/11
KWP,West Point Village,AK,2,32854,"West Point, AK",1,57.76694444,-153.55,1/1/50
KWT,Kwethluk Airport,AK,2,32855,"Kwethluk, AK",1,60.79027778,-161.4436111,7/1/11
KXA,Kasaan Seaplane Base,AK,2,32857,"Kasaan, AK",1,55.53777778,-132.3958333,1/1/50
KYC,Yankee Creek 2,AK,2,32865,"Yankee Creek, AK",1,63.00194444,-156.3672222,7/1/11
KYK,Karluk Airport,AK,2,32866,"Karluk, AK",1,57.56611111,-154.4538889,7/1/11
KYU,Koyukuk Airport,AK,2,32868,"Koyukuk, AK",1,64.87583333,-157.7305556,7/1/11
KZB,Zachar Bay Airport,AK,2,32869,"Zachar Bay, AK",1,57.55,-153.75,1/1/50
KZH,Kizhuyak Airport,AK,2,30006,"Kizhuyak, AK",1,57.58305556,-153.15,6/1/84
LHB,Lost Harbor Airport,AK,2,32968,"Lost Harbor, AK",1,54.22611111,-165.6111111,3/1/90
LIJ,Long Island Airport,AK,2,32983,"Long Island, AK",1,54.9,-132.75,12/1/84
LIV,Livengood Airport,AK,2,32993,"Livengood, AK",1,65.53111111,-148.5411111,1/1/50
LKK,Kulik Lake Airport,AK,2,33003,"Kulik Lake, AK",1,58.965,-155.0955556,12/1/17
LMA,Lake Minchumina Airport,AK,2,33016,"Minchumina, AK",1,63.88583333,-152.3019444,12/1/17
LNI,Lonely AS,AK,2,30032,"Lonely, AK",1,70.91083333,-153.2422222,7/1/11
LPW,Little Port Walter Airport,AK,2,33057,"Little Port Walter, AK",1,56.38333333,-134.8333333,1/1/50
WLR,Loring Airport,AK,2,33064,"Loring, AK",1,55.60166667,-131.635,7/1/82
LUR,Cape Lisburne LRRS,AK,2,33111,"Cape Lisburne, AK",1,68.875,-166.1111111,7/1/11
LVD,Lime Village Airport,AK,2,33115,"Lime Village, AK",1,61.35916667,-155.4402778,7/1/11
MCG,McGrath Airport,AK,2,33196,"McGrath, AK",1,62.95277778,-155.6069444,7/1/11
MCL,Denali,AK,2,30086,"McKinley Park, AK",1,63.645,-148.7980556,7/1/11
MDO,Middleton Island Airport,AK,2,33226,"Middleton Island, AK",1,59.45,-146.3072222,7/1/11
MDR,Medfra Airport,AK,2,33228,"Medfra, AK",1,63.10694444,-154.7166667,1/1/50
MHM,Minchumina Airport,AK,2,33016,"Minchumina, AK",1,63.88583333,-152.3019444,12/1/17
MLL,Marshall Don Hunter Sr.,AK,2,33369,"Marshall, AK",1,61.86416667,-162.0261111,1/1/50
MLY,Manley Hot Springs Airport,AK,2,33381,"Manley Hot Springs, AK",1,64.98805556,-150.6475,12/1/17
MNT,Minto Al Wright,AK,2,33415,"Minto, AK",1,65.14805556,-149.3686111,7/1/11
MOS,Moses Point Airport,AK,2,33432,"Moses Point, AK",1,64.69805556,-162.0572222,7/1/11
MOU,Mountain Village Airport,AK,2,33434,"Mountain Village, AK",1,62.09472222,-163.6827778,12/1/17
MRI,Merrill Field,AK,2,30299,"Anchorage, AK",1,61.21361111,-149.8447222,12/1/17
MTM,Metlakatala,AK,2,33504,"Metlakatla, AK",1,55.13333333,-131.5833333,3/1/76
MTX,Metro Field,AK,2,31517,"Fairbanks, AK",1,64.80666667,-147.7625,7/1/11
MXY,McCarthy Airport,AK,2,33564,"McCarthy, AK",1,61.43777778,-142.9025,12/1/17
MYK,May Creek Airport,AK,2,33574,"May Creek, AK",1,61.33611111,-142.6858333,12/1/17
MYU,Mekoryuk Airport,AK,2,33579,"Mekoryuk, AK",1,60.3725,-166.2702778,12/1/17
NCN,Chenega Bay,AK,2,31501,"Chenega, AK",1,60.07861111,-147.9947222,12/1/17
NIB,Nikolai Airport,AK,2,33676,"Nikolai, AK",1,63.01861111,-154.3583333,7/1/11
NIE,Niblack Airport,AK,2,33678,"Niblack, AK",1,55.06666667,-132.1458333,12/1/87
NIN,Ninilchik Airport,AK,2,33681,"Ninilchik, AK",1,60.02027778,-151.5894444,7/1/11
NKI,Naukiti Airport,AK,2,33693,"Naukiti, AK",1,55.875,-133.2208333,1/1/50
NKV,Nichin Cove Seaplane Base,AK,2,33698,"Nichen Cove, AK",1,55.85,-133.2166667,12/1/97
NLG,Nelson Lagoon Airport,AK,2,33704,"Nelson Lagoon, AK",1,56.0075,-161.1602778,7/1/11
NME,Nightmute Airport,AK,2,33710,"Nightmute, AK",1,60.46916667,-164.7041667,12/1/17
NNK,Naknek Airport,AK,2,33714,"Naknek, AK",1,58.73472222,-157.0252778,12/1/17
NNL,Nondalton Airport,AK,2,33715,"Nondalton, AK",1,59.98027778,-154.8391667,7/1/11
NUI,Nuiqsut Airport,AK,2,33767,"Nuiqsut, AK",1,70.20972222,-151.0063889,12/1/17
NUL,Nulato Airport,AK,2,33768,"Nulato, AK",1,64.72944444,-158.0741667,7/1/11
NUP,Nunapitchuk Airport,AK,2,33770,"Nunapitchuk, AK",1,60.90611111,-162.4405556,7/1/11
OBU,Kobuk Airport,AK,2,33806,"Kobuk, AK",1,66.91222222,-156.8972222,7/1/11
OCI,Thumb Bay,AK,2,33811,"Oceanic, AK",1,60.2,-147.8166667,1/1/50
OHC,Northeast Cape AFS,AK,2,33841,"Northeast Cape, AK",1,63.32638889,-168.9688889,1/1/50
OLH,Old Harbor Airport,AK,2,33863,"Old Harbor, AK",1,57.21833333,-153.2697222,12/1/17
OME,Nome Airport,AK,2,33873,"Nome, AK",1,64.5125,-165.4444444,12/1/17
ONN,Onion Bay Airport,AK,2,33888,"Onion Bay, AK",1,58.06805556,-153.2538889,3/1/84
OOB,Cobol Alaska/Scaled/,AK,2,33893,"Cobol, AK",1,57.48333333,-135.8666667,1/1/50
OOK,Toksook Bay,AK,2,33894,"Toksook, AK",1,60.54138889,-165.0872222,7/1/11
OPH,Ophir Airport,AK,2,33899,"Ophir, AK",1,63.14583333,-156.5288889,12/1/17
OQA,McDonald Lake Airport,AK,2,33901,"McDonald Lake, AK",1,55.93722222,-131.8127778,4/1/02
OQB,Bible Camp Airport,AK,2,33902,"Bible Camp, AK",1,57.92638889,-156.0833333,3/1/02
OQC,Cinder River Lodge Airport,AK,2,33903,"Cinder River Lodge, AK",1,57.06666667,-157.8141667,1/1/83
OQF,Lemesurier Island Airport,AK,2,33905,"Lemesurier Island, AK",1,58.28444444,-136.0847222,1/1/02
OQG,Tracy Arm Airport,AK,2,33906,"Tracy Arm, AK",1,57.91138889,-133.4022222,3/1/02
OQI,Vrems Airport,AK,2,33908,"Vrems, AK",1,57.85694444,-157.0866667,4/1/02
OQK,Akolik Airport,AK,2,33909,"Akolik, AK",1,68.98333333,-163.4455556,1/1/02
OQL,Mels Airport,AK,2,33910,"Mels, AK",1,56.23333333,-160.075,3/1/02
OQM,Meshik Airport,AK,2,33911,"Meshik, AK",1,56.76666667,-158.0852778,3/1/02
OQN,Telaquana Lake Airport,AK,2,33912,"Telaquana Lake, AK",1,60.95527778,-153.9075,4/1/02
OQO,Chelatna Lake Lodge Airport,AK,2,33913,"Chelatna Lake Lodge, AK",1,62.43416667,-151.4147222,6/1/02
OQP,Pumice Airport,AK,2,33914,"Pumice, AK",1,57.17833333,-157.7333333,3/1/02
OQQ,Points Alsworth,AK,2,34268,"Port Alsworth, AK",1,60.18333333,-154.3338889,4/1/02
OQR,Twin Lakes Airport,AK,2,33916,"Twin Lakes, AK",1,60.65277778,-154.0361111,1/1/83
OQS,Sandy Airport,AK,2,33917,"Sandy, AK",1,56.23333333,-160.2258333,3/1/02
OQV,Shirleyville Airport,AK,2,33920,"Shirleyville, AK",1,61.01361111,-151.4069444,8/1/02
OQW,Doug Carney Strip Airport,AK,2,33921,"Doug Carney Strip, AK",1,61.43416667,-157.05,8/1/02
OQX,Shisholik Airport,AK,2,33922,"Shisholik, AK",1,67,-162.8333333,7/1/02
OQY,Camp Sivinuvik,AK,2,33923,"Sivinuvik, AK",1,66.88333333,-161.4833333,8/1/02
OQZ,American Creek Airport,AK,2,33924,"American Creek, AK",1,62.04333333,-158.2563889,7/1/02
ORI,Port Lions Airport,AK,2,33934,"Port Lions, AK",1,57.885,-152.8475,12/1/17
ORT,Northway Airport,AK,2,33940,"Northway, AK",1,62.96111111,-141.9280556,7/1/11
ORV,Robert/Bob/Curtis Memorial,AK,2,33942,"Noorvik, AK",1,66.8175,-161.0222222,7/1/11
OTZ,Ralph Wien Memorial,AK,2,33970,"Kotzebue, AK",1,66.88472222,-162.5980556,12/1/17
PAQ,Palmer Buddy Woods Municipal,AK,2,34013,"Palmer, AK",1,61.595,-149.0886111,3/1/18
PBK,Pack Creek Airport,AK,2,34028,"Pack Creek, AK",1,57.8,-134.7,3/1/93
PCA,Portage Creek Airport,AK,2,34037,"Portage Creek, AK",1,58.90638889,-157.7111111,7/1/11
PCE,Painter Creek Airport,AK,2,34040,"Painter Creek, AK",1,57.15388889,-157.3969444,6/1/74
PDB,Pedro Bay Airport,AK,2,34046,"Pedro Bay, AK",1,59.79694444,-154.13,7/1/11
PEC,Pelican Seaplane Base,AK,2,34062,"Pelican, AK",1,57.95,-136.2333333,1/1/50
PFA,Paf Warren Airport,AK,2,34075,"Paf Warren, AK",1,58.72694444,-156.9433333,3/1/00
PFD,Port Frederick Airport,AK,2,34077,"Port Frederick, AK",1,57.95,-135.65,1/1/00
PGM,Port Graham Airport,AK,2,34088,"Port Graham, AK",1,59.34861111,-151.8302778,12/1/17
PHO,Point Hope Airport,AK,2,34102,"Point Hope, AK",1,68.34861111,-166.7991667,12/1/17
PII,Phillips Field,AK,2,31517,"Fairbanks, AK",1,64.85,-147.7866667,1/1/50
PIP,Pilot Point Airport,AK,2,34119,"Pilot Point, AK",1,57.58027778,-157.5719444,7/1/11
PIZ,Point Lay LRRS,AK,2,34125,"Point Lay, AK",1,69.73277778,-163.0052778,7/1/11
PJS,Port San Juan Airport,AK,2,34129,"Port San Juan, AK",1,60.05,-148.0666667,6/1/85
PKA,Napaskiak Airport,AK,2,34130,"Napaskiak, AK",1,60.70305556,-161.7783333,7/1/11
PML,Port Moller Airport,AK,2,34167,"Port Moller, AK",1,56.00611111,-160.5608333,7/1/11
PMU,Paimiut Airport,AK,2,34173,"Paimiut, AK",1,61.96666667,-160.2333333,1/1/50
PNF,Peterson's Point Airport,AK,2,34183,"Peterson's Point, AK",1,58.68333333,-156.8333333,1/1/50
POQ,Polk Inlet Airport,AK,2,34208,"Polk Inlet, AK",1,55.2,-132.2333333,12/1/87
PPC,Prospect Creek Airport,AK,2,34218,"Prospect Creek, AK",1,66.81416667,-150.6436111,7/1/11
PPV,Port Protection Airport,AK,2,34229,"Port Protection, AK",1,56.32916667,-133.6083333,6/1/89
PQS,Pilot Station Airport,AK,2,34234,"Pilot Station, AK",1,61.96138889,-162.9425,12/1/17
PRT,Coast Guard Heliport,AK,2,34244,"Point Retreat, AK",1,58.41083333,-134.9563889,6/1/00
PSG,Petersburg James A Johnson,AK,2,34256,"Petersburg, AK",1,56.80138889,-132.9461111,12/1/17
PTA,Port Alsworth Airport,AK,2,34268,"Port Alsworth, AK",1,60.20444444,-154.3188889,7/1/11
PTC,Port Alice Airport,AK,2,34269,"Port Alice, AK",1,55.78333333,-133.6,12/1/86
PTD,Port Alexander Airport,AK,2,34270,"Port Alexander, AK",1,56.24722222,-134.6463889,1/1/50
PTH,Port Heiden Airport,AK,2,34273,"Port Heiden, AK",1,56.95916667,-158.6333333,7/1/11
PTL,Port Armstrong Airport,AK,2,34276,"Port Armstrong, AK",1,56.29611111,-134.6613889,1/1/50
PTR,Pleasant Harbour Airport,AK,2,34279,"Pleasant Harbour, AK",1,57.83333333,-153.25,1/1/82
PTU,Platinum Airport,AK,2,31406,"Platinum, AK",1,59.01777778,-161.8272222,12/1/17
PUO,Prudhoe Bay Airport,AK,2,34296,"Prudhoe Bay, AK",1,70.25194444,-148.3427778,6/1/85
PVY,Pope Vanoy Airport,AK,2,34316,"Pope Vanoy, AK",1,59.31666667,-154.9166667,9/1/84
PWR,Big and Little Port Walter,AK,2,34322,"Big Port Walter, AK",1,56.38333333,-134.65,1/1/50
PYA,Port Ashton Airport,AK,2,34327,"Port Ashton, AK",1,60.0575,-148.0511111,1/1/50
PYL,Perry Island Seaplane Base,AK,2,34331,"Perry Island, AK",1,60.68583333,-147.9166667,1/1/50
QQB,Keyes Point Airport,AK,2,34412,"Keyes Point, AK",1,60.15,-154.6166667,12/1/88
QQC,Nimiuk Point Airport,AK,2,34413,"Nimiuk Point, AK",1,66.78333333,-162.0166667,12/1/92
QQE,Sealing Point Airport,AK,2,34415,"Sealing Point, AK",1,67.11666667,-163.75,7/1/02
RBB,Randy Field,AK,2,34464,"Ugashik, AK",1,57.51638889,-157.3877778,4/1/09
RBH,Brooks Lodge Airport,AK,2,34468,"Brooks Lodge, AK",1,58.55,-155.8,6/1/89
RBY,Ruby Airport,AK,2,34474,"Ruby, AK",1,64.72722222,-155.47,7/1/11
RDB,Red Dog Airport,AK,2,34485,"Red Dog, AK",1,68.03222222,-162.8991667,7/1/11
RDV,Red Devil Airport,AK,2,34493,"Red Devil, AK",1,61.78805556,-157.3502778,7/1/11
RLU,Bornite Upper,AK,2,34551,"Bornite/Ruby Creek, AK",1,67.10166667,-156.9291667,1/1/50
RMP,Rampart Airport,AK,2,34559,"Rampart, AK",1,65.50777778,-150.1408333,7/1/11
RQI,Nixon Fork Mine Airport,AK,2,34601,"Nixon Fork Mine, AK",1,62.23388889,-154.7347222,3/1/94
RSH,Russian Mission Airport,AK,2,34627,"Russian Mission, AK",1,61.775,-161.3194444,7/1/11
RSP,Raspberry Straits,AK,2,34631,"Raspberry Strait, AK",1,58.03333333,-153,1/1/50
RTE,Marguerite Bay Airport,AK,2,34638,"Marguerite Bay, AK",1,55.7,-131.6333333,3/1/90
RWB,Rowan Bay Airport,AK,2,34655,"Rowan Bay, AK",1,56.65,-134.2833333,3/1/85
RXB,Rodman Bay Airport,AK,2,34658,"Rodman Bay, AK",1,57.46666667,-135.4,1/1/50
SAG,Sagwon Airport,AK,2,34675,"Sagwon, AK",1,69.36638889,-148.7044444,1/1/50
SCC,Deadhorse Airport,AK,2,30073,"Deadhorse, AK",1,70.19472222,-148.4652778,10/1/17
SCJ,Smith Cove Airport,AK,2,34715,"Smith Cove, AK",1,55.45472222,-132.3519444,9/1/89
SCM,Scammon Bay Airport,AK,2,34718,"Scammon Bay, AK",1,61.84444444,-165.5736111,7/1/11
SDP,Sand Point,AK,2,34738,"Sandpoint, AK",1,55.31361111,-160.5213889,7/1/11
SGW,Saginaw,AK,2,34795,"Saginaw Bay, AK",1,56.88333333,-134.15,1/1/50
SGY,Skagway Airport,AK,2,34797,"Skagway, AK",1,59.46,-135.3155556,7/1/11
SHG,Shungnak Airport,AK,2,34804,"Shungnak, AK",1,66.88805556,-157.1625,7/1/11
SHH,Shishmaref Airport,AK,2,34805,"Shishmaref, AK",1,66.24944444,-166.0894444,7/1/11
SHX,Shageluk Airport,AK,2,34816,"Shageluk, AK",1,62.69222222,-159.5691667,7/1/11
SIT,Sitka Rocky Gutierrez,AK,2,34828,"Sitka, AK",1,57.04694444,-135.3611111,12/1/17
SKJ,Sitkinak CGS,AK,2,34855,"Sitkinak, AK",1,56.53277778,-154.1138889,1/1/50
SKK,Shaktoolik Airport,AK,2,34856,"Shaktoolik, AK",1,64.37111111,-161.2238889,7/1/11
SKW,Skwentna Airport,AK,2,34863,"Skwentna, AK",1,61.96611111,-151.1952778,12/1/17
SLQ,Sleetmute Airport,AK,2,34880,"Sleetmute, AK",1,61.70055556,-157.1658333,7/1/11
SMK,St. Michael Airport,AK,2,34895,"St. Michael, AK",1,63.49,-162.1102778,7/1/11
SMU,Sheep Mountain Airport,AK,2,34903,"Sheep Mountain, AK",1,61.81138889,-147.5091667,12/1/17
SNP,St. Paul Island,AK,2,34919,"St. Paul Island, AK",1,57.16638889,-170.2225,7/1/11
SOL,Solomon State Field,AK,2,34934,"Solomon, AK",1,64.56055556,-164.4422222,12/1/17
SOV,Seldovia Airport,AK,2,34942,"Seldovia, AK",1,59.44388889,-151.705,12/1/17
SRV,Stony River Airport,AK,2,34987,"Stony River, AK",1,61.78972222,-156.5886111,7/1/11
STG,St. George Island Airport,AK,2,35012,"St. George Island, AK",1,56.60083333,-169.5641667,6/1/77
SVA,Savoonga Airport,AK,2,35049,"Savoonga, AK",1,63.68638889,-170.4930556,7/1/11
SVS,Stevens Village Airport,AK,2,35061,"Stevens Village, AK",1,66.01694444,-149.0544444,7/1/11
SVW,Sparrevohn LRRS,AK,2,35063,"Sparrevohn, AK",1,61.09722222,-155.5747222,7/1/11
SWD,Seward Airport,AK,2,35069,"Seward, AK",1,60.13,-149.4169444,12/1/17
SXP,Nunam Iqua,AK,2,35085,"Sheldon Point, AK",1,62.52055556,-164.8477778,12/1/17
SXQ,Soldotna Airport,AK,2,35086,"Soldotna, AK",1,60.47527778,-151.0397222,12/1/17
SYA,Eareckson AS,AK,2,35090,"Shemya, AK",1,52.71222222,174.1136111,7/1/11
SYB,Seal Bay Airport,AK,2,35091,"Seal Bay, AK",1,58.38333333,-152.2333333,1/1/50
TAL,Ralph M Calhoun Memorial,AK,2,35124,"Tanana, AK",1,65.17444444,-152.1080556,12/1/17
TCT,Takotna Airport,AK,2,35160,"Takotna, AK",1,62.99305556,-156.0297222,12/1/17
TEH,Tetlin Airport,AK,2,35170,"Tetlin, AK",1,63.12472222,-142.5186111,12/1/17
TEK,Tatitlek Airport,AK,2,35171,"Tatitlek, AK",1,60.8725,-146.6911111,7/1/11
TKA,Talkeetna Airport,AK,2,35228,"Talkeetna, AK",1,62.32138889,-150.0927778,12/1/17
TKE,Tenakee Airport,AK,2,35231,"Tenakee, AK",1,57.71666667,-135.2,1/1/50
TKI,Tokeen Airport,AK,2,35235,"Tokeen, AK",1,55.9375,-133.325,12/1/86
TKJ,Tok Junction,AK,2,35236,"Tok, AK",1,63.32944444,-142.9536111,9/1/00
TKL,Taku Seaplane Base,AK,2,35238,"Taku Lodge, AK",1,58.49,-133.9416667,12/1/87
TLA,Teller Airport,AK,2,35245,"Teller, AK",1,65.24027778,-166.3394444,7/1/11
TLF,Telida Airport,AK,2,35248,"Telida, AK",1,63.37888889,-153.2841667,12/1/17
TLJ,Tatalina LRRS,AK,2,35250,"Tatalina, AK",1,62.895,-155.9780556,12/1/17
TLT,Tuluksak Airport,AK,2,35257,"Tuluksak, AK",1,61.08777778,-160.9233333,12/1/17
TNC,Tin City LRRS,AK,2,35278,"Tin City, AK",1,65.56416667,-167.9225,7/1/11
TNK,Tununak Airport,AK,2,35282,"Tununak, AK",1,60.56944444,-165.2463889,12/1/17
TOG,Togiak Airport,AK,2,35293,"Togiak, AK",1,59.05361111,-160.3966667,12/1/17
TSG,Tanacross Airport,AK,2,35339,"Tanacross, AK",1,63.37416667,-143.3288889,12/1/17
TWA,Twin Hills Airport,AK,2,35385,"Twin Hills, AK",1,59.07444444,-160.275,7/1/11
TWE,Taylor Airport,AK,2,35388,"Taylor, AK",1,65.67916667,-164.7988889,9/1/81
TYE,Tyonek Airport,AK,2,35406,"Tyonek, AK",1,61.07666667,-151.1380556,7/1/11
UGB,Ugashik Bay,AK,2,34119,"Pilot Point, AK",1,57.42527778,-157.74,7/1/11
UGI,Uganik Airport,AK,2,35446,"Uganik, AK",1,57.75,-153.3166667,1/1/82
UGS,Ugashik Airport,AK,2,34464,"Ugashik, AK",1,57.52333333,-157.3961111,7/1/11
UMB,North Shore,AK,2,35467,"Umnak, AK",1,53.37666667,-167.8875,1/1/50
UMM,Summit Airport,AK,2,35470,"Summit, AK",1,63.33111111,-149.1288889,12/1/17
UMT,Umiat Airport,AK,2,35472,"Umiat, AK",1,69.37111111,-152.135,7/1/11
UNK,Unalakleet Airport,AK,2,35478,"Unalakleet, AK",1,63.88861111,-160.7991667,7/1/11
UNS,Umnak Airport,AK,2,35467,"Umnak, AK",1,53.22388889,-168.4322222,1/1/50
USI,Usi Belli Coal Mine,AK,2,35494,"Usibelli, AK",1,63.86666667,-148.7833333,1/1/50
UTO,Indian Mountain LRRS,AK,2,35504,"Utopia, AK",1,65.99277778,-153.7036111,12/1/17
UUK,North Kuparuk,AK,2,35508,"Kuparuk, AK",1,70.36222222,-149.0283333,3/1/82
UXA,Lik Camp Airport,AK,2,35515,"Lik Camp, AK",1,68.16666667,-163.2,3/1/93
UXI,Calder Bay Airport,AK,2,35523,"Calder Bay, AK",1,56.17166667,-133.4930556,6/1/93
UXL,Chariot Airport,AK,2,35526,"Chariot, AK",1,68.09722222,-165.7638889,6/1/93
UXM,47-Mile Mine Airport,AK,2,35527,"47-Mile Mine, AK",1,61.04444444,-158.1452778,12/1/02
VAK,Chevak Airport,AK,2,35554,"Chevak, AK",1,61.54083333,-165.6008333,7/1/11
VCB,View Cove Airport,AK,2,35565,"View Cove, AK",1,55.06666667,-133.0166667,9/1/89
VDZ,Valdez Pioneer Field,AK,2,35579,"Valdez, AK",1,61.13416667,-146.2447222,7/1/11
VEE,Venetie Airport,AK,2,35581,"Venetie, AK",1,67.00861111,-146.3663889,7/1/11
VIK,Kavik River Airport,AK,2,35599,"Kavik River, AK",1,69.67722222,-146.8991667,1/1/50
VWZ,Granite Creek Mine Airport,AK,2,35671,"Granite Creek Mine, AK",1,62.36305556,-156.9741667,3/1/93
VZA,Marvel Creek Mine Airport,AK,2,35676,"Marvel Creek Mine, AK",1,60.90611111,-159.6391667,3/1/92
VZB,Mitrofania Airport,AK,2,35677,"Mitrofania, AK",1,56.00166667,-158.8333333,6/1/92
VZC,Mush Bay Airport,AK,2,35678,"Mush Bay, AK",1,57.7,-153.4733333,6/1/92
VZD,Campbell Lagoon Airport,AK,2,35679,"Campbell Lagoon, AK",1,57.85555556,-153.6333333,6/1/92
VZE,Frazer Lake Airport,AK,2,35680,"Frazer Lake, AK",1,57.20833333,-154.0861111,6/1/92
VZF,Afognak Straits Airport,AK,2,35681,"Afognak Straits, AK",1,58,-152.8166667,6/1/92
VZG,Moffet Bay Airport,AK,2,35682,"Moffet Bay, AK",1,55.42833333,-162.63,6/1/92
VZM,Jensens Strip Airport,AK,2,35688,"Jensens Strip, AK",1,57.95,-157.05,6/1/92
VZN,Wildman Creek Airport,AK,2,35689,"Wildman Creek, AK",1,56.25,-159.9166667,6/1/92
VZO,Stepovak Airport,AK,2,35690,"Stepovak, AK",1,55.83333333,-159.8666667,6/1/92
VZQ,Puale Bay Airport,AK,2,35692,"Puale Bay, AK",1,57.73333333,-155.6333333,6/1/92
VZR,Katmai Bay Airport,AK,2,35693,"Katmai Bay, AK",1,58,-154.9666667,6/1/92
VZS,Kashvik Bay Airport,AK,2,35694,"Kashvik Bay, AK",1,57.96666667,-155.1333333,6/1/92
VZT,Cinder Mountain Airport,AK,2,35695,"Cinder Mountain, AK",1,57.05833333,-157.8,6/1/92
VZU,Hagemeister Island Airport,AK,2,35696,"Hagemeister Island, AK",1,58.75,-160.8333333,6/1/92
VZV,Cape Peirce Airport,AK,2,35697,"Cape Peirce, AK",1,58.55277778,-161.7686111,9/1/92
VZW,Cape Greig Airport,AK,2,35698,"Cape Greig, AK",1,57.71666667,-157.7166667,9/1/92
VZY,Katmai Lodge Airport,AK,2,35700,"Katmai Lodge, AK",1,59.07,-156.0483333,12/1/91
WAA,Wales Airport,AK,2,35709,"Wales, AK",1,65.6225,-168.095,7/1/11
WBB,Stebbins Airport,AK,2,35721,"Stebbins, AK",1,63.51583333,-162.2780556,7/1/11
WBQ,Beaver Airport,AK,2,35725,"Beaver, AK",1,66.36222222,-147.4063889,12/1/17
WCL,Whalers Cove Lodge Airport,AK,2,35730,"Whalers Cove Lodge, AK",1,57.46666667,-134.5666667,7/1/02
WCR,Chandalar Lake,AK,2,35731,"Chandalar, AK",1,67.50444444,-148.4833333,8/1/15
WDB,Wide Bay Airport,AK,2,30084,"Wide Bay, AK",1,57.37138889,-156.4125,10/1/80
WFB,Ketchikan Waterfront Seaplane Base,AK,2,31401,"Ketchikan, AK",1,55.35805556,-131.6683333,12/1/93
WHD,Hyder Seaplane Base,AK,2,35754,"Hyder, AK",1,55.90361111,-130.005,9/1/74
WKK,Aleknagik New,AK,2,35774,"Aleknagik, AK",1,59.2825,-158.6177778,7/1/11
WLB,Labouchere Bay Airport,AK,2,35781,"Labouchere Bay, AK",1,56.28333333,-133.65,12/1/84
WLK,Selawik Airport,AK,2,30020,"Selawik, AK",1,66.60027778,-159.9858333,7/1/11
WMK,Meyers Chuck Seaplane Base,AK,2,35793,"Meyers Chuck, AK",1,55.74,-132.2533333,7/1/77
WMO,White Mountain Airport,AK,2,35794,"White Mountain, AK",1,64.68916667,-163.4127778,7/1/11
WNA,Napakiak Airport,AK,2,35798,"Napakiak, AK",1,60.69027778,-161.9786111,7/1/11
WOD,Wood River Airport,AK,2,35805,"Wood River, AK",1,59.06666667,-134.75,12/1/87
WOW,Willow Airport,AK,2,35807,"Willow, AK",1,61.75416667,-150.0516667,7/1/11
WQJ,Peard Bay Airport,AK,2,35822,"Peard Bay, AK",1,70.8,-158.3333333,3/1/91
WQL,Bluff Airport,AK,2,35824,"Bluff, AK",1,64.59055556,-163.7752778,3/1/91
WQR,Tibbetts,AK,2,33714,"Naknek, AK",1,58.73416667,-157.0072222,3/1/92
WQW,David River Airport,AK,2,35835,"David River, AK",1,55.91444444,-161.6375,3/1/92
WQX,Kiavak Airport,AK,2,35836,"Kiavak, AK",1,57.01666667,-153.6666667,3/1/92
WQY,Port Wakefield Airport,AK,2,35837,"Port Wakefield, AK",1,58.05277778,-153.05,1/1/50
WQZ,Chignik Lake Airport,AK,2,32631,"Chignik, AK",1,56.25555556,-158.7777778,12/1/17
WRG,Wrangell Airport,AK,2,35841,"Wrangell, AK",1,56.48444444,-132.3697222,7/1/11
WSB,Steamboat Bay Airport,AK,2,35846,"Steamboat Bay, AK",1,55.51666667,-133.6333333,1/1/50
WSJ,San Juan Airport,AK,2,35850,"San Juan, AK",1,57.73111111,-153.3183333,1/1/50
WSM,Wiseman Airport,AK,2,35852,"Wiseman, AK",1,67.405,-150.1208333,12/1/17
WSN,South Naknek 2,AK,2,35853,"South Naknek, AK",1,58.70194444,-157.0025,7/1/11
WTK,Noatak Airport,AK,2,31464,"Noatak, AK",1,67.56111111,-162.9805556,12/1/17
WTL,Tuntutuliak Airport,AK,2,35862,"Tuntutuliak, AK",1,60.335,-162.6538889,12/1/17
WTT,Whittier Airport,AK,2,35866,"Whittier, AK",1,60.77722222,-148.7216667,7/1/11
WWA,Wasilla Airport,AK,2,35849,"Wasilla, AK",1,61.57194444,-149.5394444,7/1/11
WWP,Whale Pass Airport,AK,2,35885,"Whale Pass, AK",1,56.11666667,-133.1166667,9/1/80
WWT,Newtok Airport,AK,2,35887,"Newtok, AK",1,60.93916667,-164.6413889,7/1/11
WYB,Yes Bay Lodge Seaplane Base,AK,2,35894,"Yes Bay, AK",1,55.91611111,-131.8011111,1/1/02
XWA,Granite Point Ndb,AK,2,35934,"Granite Point, AK",1,60.96166667,-151.3316667,3/1/90
XWC,Yantarni Bay Airport,AK,2,35936,"Yantarni Bay, AK",1,56.88333333,-156.5666667,3/1/90
XWS,Oliktok LRRS,AK,2,35952,"Oliktok, AK",1,70.49972222,-149.8794444,7/1/11
XWT,Nushagak Bay Airport,AK,2,35953,"Nushagak Bay, AK",1,57.45,-158,3/1/91
YAK,Yakutat Airport,AK,2,35991,"Yakutat, AK",1,59.50333333,-139.6602778,7/1/11
ZNC,Nyac Airport,AK,2,36311,"Nyac, AK",1,60.98055556,-159.9936111,7/1/11
ZXF,Illinois Creek Airport,AK,2,36339,"Illinois Creek, AK",1,64.11666667,-157.35,3/1/90
ZXH,Chomondely Sound Airport,AK,2,36340,"Chomondely Sound, AK",1,55.23916667,-132.1141667,3/1/90
ZXI,Coal Bay Airport,AK,2,36341,"Coal Bay, AK",1,55.50055556,-132.4875,3/1/90
ZXJ,Happy Harbour Airport,AK,2,36342,"Happy Harbour, AK",1,55.48833333,-132.3333333,3/1/90
ZXK,Lancaster Cove Airport,AK,2,36343,"Lancaster Cove, AK",1,55.21666667,-132.0863889,3/1/90
ZXL,Reid Cove Airport,AK,2,36344,"Reid Cove, AK",1,55.2,-132.2383333,3/1/90
ZXM,Saltery Cove Airport,AK,2,36345,"Saltery Cove, AK",1,55.40861111,-132.3291667,3/1/90
ZXN,Clover Bay Airport,AK,2,36346,"Clover Bay, AK",1,55.29888889,-132.145,3/1/90
ZXO,El Capitan Peak,AK,2,36347,"El Capitan, AK",1,56.18416667,-133.3105556,3/1/90
ZXP,Salmon Bay Lake Airport,AK,2,36348,"Salmon Bay Lake, AK",1,56.23722222,-133.1888889,3/1/90
BVU,Beluga Airport,AK,2,36390,"Beluga, AK",1,61.17277778,-151.0427778,12/1/17
WNC,Naukati Bay Seaplane Base,AK,2,36430,"Tuxekan Island, AK",1,55.84972222,-133.2277778,1/1/10
AA7,Independence Creek Airport,AK,2,36466,"Independence Creek, AK",1,65.67361111,-162.4641667,1/1/11
AK1,Kelly Creek Airstrip,AK,2,36479,"Seward Peninsula, AK",1,65.77277778,-165.8902778,1/1/11
AK2,Bear Fish Camp Airport,AK,2,36480,"Bear Fish Camp, AK",1,60.71027778,-151.7211111,1/1/11
AK3,Gold King Creek,AK,2,31517,"Fairbanks, AK",1,64.19805556,-147.9286111,7/1/11
AK4,Squaw Lake Airport,AK,2,36500,"Squaw Lake, AK",1,67.58055556,-148.1647222,6/1/11
7AK,Akun Airport,AK,2,36553,"Akun, AK",1,54.14472222,-165.6041667,10/1/12
AK5,Qugruc Airport,AK,2,36566,"Qugruc, AK",1,70.37027778,-150.4211111,1/1/13
AK6,Gold King 2 Airport,AK,2,36567,"Gold King 2, AK",1,64.07138889,-148,1/1/13
AK7,Hunter Creek,AK,2,34559,"Rampart, AK",1,65.47722222,-150.0508333,4/1/13
AK8,Zips Airport,AK,2,36605,"Zips, AK",1,60.43333333,-151.4833333,1/1/14
AK9,Tolstoi Bay Airport,AK,2,36614,"Tolstoi Bay, AK",1,55.73333333,-132.4333333,6/1/14
AA2,Icicle Seafoods,AK,2,36645,"Naknek-1, AK",1,58.70944444,-157.0713889,1/1/14
A1K,Point Thomson Airstrip,AK,2,36651,"Deadhorse1, AK",1,70.13611111,-146.29,1/1/15
A3K,Smith Bay Airport,AK,2,36677,"Smith Bay, AK",1,70.76583333,-154.2308333,10/1/15
A4K,Dune Lake Airport,AK,2,36679,"Dune Lake, AK",1,64.42138889,-149.8944444,10/1/15
A6K,Van Curlers Sandbar,AK,2,36699,"Fairbanks1, AK",1,65.04472222,-145.4230556,4/1/16
A7K,Nakochna Airport,AK,2,36702,"Nakochna, AK",1,62.03611111,-151.4522222,4/1/16
ZZZ,Unknown Point in Alaska,AK,2,99999,Unknown Point in Alaska,1,,,1/1/50
1G4,Grand Canyon West,AZ,4,30011,"Peach Springs, AZ",81,35.98611111,-113.8169444,12/1/17
AVW,Marana Regional,AZ,4,30436,"Tucson, AZ",81,32.40944444,-111.2183333,7/1/11
AZ1,Valle,AZ,4,30463,"Grand Canyon, AZ",81,35.65055556,-112.1480556,7/1/11
AZ2,H. A. Clark Memorial Field,AZ,4,30464,"Williams, AZ",81,35.30555556,-112.1944444,7/1/11
AZ3,Glendale Municipal,AZ,4,30466,"Phoenix, AZ",81,33.52694444,-112.2952778,7/1/11
AZA,Phoenix - Mesa Gateway,AZ,4,30466,"Phoenix, AZ",81,33.30777778,-111.6555556,1/1/08
BGT,Bagdad Airport,AZ,4,30583,"Bagdad, AZ",81,34.59277778,-113.1719444,12/1/17
IFP,Laughlin/Bullhead International,AZ,4,30590,"Bullhead City, AZ",81,35.15472222,-114.5594444,12/1/17
BSQ,Bisbee Municipal,AZ,4,30765,"Bisbee, AZ",81,31.36388889,-109.8830556,7/1/11
CFT,Greenlee County,AZ,4,30958,"Clifton, AZ",81,32.95694444,-109.2111111,7/1/11
CGZ,Casa Grande Municipal,AZ,4,30979,"Casa Grande, AZ",81,32.955,-111.7669444,7/1/11
CHD,Chandler Municipal,AZ,4,30982,"Chandler, AZ",81,33.26916667,-111.8111111,7/1/11
CTW,Cottonwood Airport,AZ,4,31173,"Cottonwood, AZ",81,34.73,-112.0352778,12/1/17
DMA,Davis Monthan AFB,AZ,4,30436,"Tucson, AZ",81,32.16638889,-110.8830556,7/1/11
DQS,Grand Canyon Bar Ten Airstrip,AZ,4,31399,"Whitmore, AZ",81,36.25638889,-113.2308333,7/1/11
DQW,Hualapai,AZ,4,30011,"Peach Springs, AZ",81,35.57222222,-113.2925,12/1/00
DUG,Bisbee Douglas International,AZ,4,31440,"Douglas, AZ",81,31.46888889,-109.6038889,12/1/17
DVT,Phoenix - Deer Valley,AZ,4,30466,"Phoenix, AZ",81,33.68833333,-112.0825,7/1/11
FHU,Sierra Vista Municipal-Libby AAF,AZ,4,31673,"Fort Huachuca, AZ",81,31.58833333,-110.3444444,7/1/11
FLG,Flagstaff Pulliam,AZ,4,31695,"Flagstaff, AZ",81,35.14027778,-111.6691667,7/1/11
FVG,Wickenburg Municipal,AZ,4,31803,"Wickenburg, AZ",81,33.97055556,-112.795,12/1/17
GCN,Grand Canyon National Park,AZ,4,30463,"Grand Canyon, AZ",81,35.95222222,-112.1469444,7/1/11
GYR,Phoenix Goodyear,AZ,4,30466,"Phoenix, AZ",81,33.42333333,-112.3752778,12/1/17
HAE,Havasupai Airport,AZ,4,32061,"Havasupai, AZ",81,36.21666667,-112.6666667,6/1/83
HII,Lake Havasu City Airport,AZ,4,32132,"Lake Havasu City, AZ",81,34.57111111,-114.3583333,7/1/11
IGM,Kingman Airport,AZ,4,32297,"Kingman, AZ",81,35.25944444,-113.9380556,7/1/11
INW,Winslow-Lindbergh Regional,AZ,4,32351,"Winslow, AZ",81,35.02166667,-110.7230556,12/1/17
JGC,Grand Canyon Heliport,AZ,4,30463,"Grand Canyon, AZ",81,35.96666667,-112.1333333,3/1/90
LUF,Luke AFB,AZ,4,30466,"Phoenix, AZ",81,33.535,-112.3830556,1/1/50
MSC,Falcon Field,AZ,4,33480,"Mesa, AZ",81,33.46083333,-111.7283333,12/1/79
MVM,Kayenta Airport,AZ,4,33536,"Kayenta, AZ",81,36.71638889,-110.2283333,7/1/11
MYH,Cliff Dwellers,AZ,4,33572,"Marble Canyon, AZ",81,36.73444444,-111.7527778,12/1/17
MZJ,Pinal Airpark,AZ,4,33587,"Marana, AZ",81,32.50972222,-111.3252778,7/1/11
NGC,North Rim,AZ,4,30463,"Grand Canyon, AZ",81,36.18333333,-112.1333333,9/1/75
NYL,Yuma MCAS/Yuma International,AZ,4,33785,"Yuma, AZ",81,32.65666667,-114.6058333,1/1/50
OLS,Nogales International,AZ,4,33868,"Nogales, AZ",81,31.41777778,-110.8477778,7/1/11
PGA,Page Municipal,AZ,4,34081,"Page, AZ",81,36.92611111,-111.4483333,7/1/11
PGS,Peach Springs Dirt Strip,AZ,4,30011,"Peach Springs, AZ",81,35.52833333,-113.2466667,6/1/86
PHX,Phoenix Sky Harbor International,AZ,4,30466,"Phoenix, AZ",81,33.43416667,-112.0116667,7/1/11
PJB,Payson Airport,AZ,4,34126,"Payson, AZ",81,34.25694444,-111.3391667,7/1/11
PRC,Ernest A. Love Field,AZ,4,34237,"Prescott, AZ",81,34.65472222,-112.4191667,12/1/17
QAJ,San Carlos Apache,AZ,4,34344,"Globe, AZ",81,33.35305556,-110.6672222,7/1/11
QQU,Window Rock Airport,AZ,4,34431,"Window Rock, AZ",81,35.65194444,-109.0675,7/1/11
SAD,Safford Regional,AZ,4,34673,"Safford, AZ",81,32.85333333,-109.635,7/1/11
SCF,Scottsdale,AZ,4,30466,"Phoenix, AZ",81,33.62277778,-111.9105556,1/1/50
SDX,Sedona Airport,AZ,4,34744,"Sedona, AZ",81,34.84861111,-111.7883333,7/1/11
SJN,St. Johns Industrial Air Park,AZ,4,34837,"St. Johns, AZ",81,34.51861111,-109.3788889,7/1/11
SLJ,Stellar Airpark,AZ,4,30982,"Chandler, AZ",81,33.29888889,-111.9155556,7/1/11
SOW,Show Low Regional,AZ,4,34943,"Show Low, AZ",81,34.26555556,-110.0055556,7/1/11
TUS,Tucson International,AZ,4,30436,"Tucson, AZ",81,32.11888889,-110.9444444,3/1/18
TYZ,Taylor Airport,AZ,4,35413,"Taylor, AZ",81,34.45277778,-110.115,7/1/11
VWN,Avi Suquilla,AZ,4,35659,"Parker, AZ",81,34.14972222,-114.2677778,7/1/11
WTR,Whiteriver Airport,AZ,4,35864,"Whiteriver, AZ",81,33.81055556,-109.9858333,7/1/11
YUM,Yuma MCAS/Yuma International,AZ,4,33785,"Yuma, AZ",81,32.65666667,-114.6058333,1/1/50
L41,Marble Canyon Airport,AZ,4,33572,"Marble Canyon, AZ",81,36.81083333,-111.6444444,7/1/11
AZ4,Sheepy Hollow Ranch,AZ,4,36449,"Salome, AZ",81,33.7875,-113.6425,7/1/10
AZ5,Springerville Municipal,AZ,4,36547,"Springerville, AZ",81,34.12944444,-109.3108333,12/1/17
AZ6,Gila Bend Municipal,AZ,4,36623,"Gila Bend, AZ",81,32.96027778,-112.6736111,6/1/14
AR1,Russellville Regional,AR,5,30345,"Russellville, AR",71,35.25916667,-93.09333333,7/1/11
AR2,Dennis F Cantrell Field,AR,5,30346,"Conway, AR",71,35.08111111,-92.42444444,12/1/17
ARG,Walnut Ridge Regional,AR,5,30352,"Walnut Ridge, AR",71,36.12472222,-90.925,7/1/11
AWM,West Memphis Municipal,AR,5,30440,"West Memphis, AR",71,35.135,-90.23444444,3/1/03
BVX,Batesville Regional,AR,5,30814,"Batesville, AR",71,35.72611111,-91.6475,1/1/50
BYH,Arkansas International,AR,5,30838,"Blytheville, AR",71,35.96444444,-89.94388889,7/1/11
CDH,Harrell Field,AR,5,30921,"Camden, AR",71,33.62277778,-92.76333333,12/1/02
ELD,South Arkansas Regional at Goodwin Field,AR,5,31531,"El Dorado, AR",71,33.22083333,-92.81333333,7/1/11
FSM,Fort Smith Regional,AR,5,31778,"Fort Smith, AR",71,35.33666667,-94.3675,1/1/50
FYV,Drake Field,AR,5,31834,"Fayetteville, AR",71,36.005,-94.17,7/1/11
HKA,Blytheville Municipal,AR,5,30838,"Blytheville, AR",71,35.94055556,-89.83083333,1/1/50
HOT,Memorial Field,AR,5,32190,"Hot Springs, AR",71,34.47805556,-93.09611111,7/1/11
HRO,Boone County,AR,5,32207,"Harrison, AR",71,36.26138889,-93.15472222,7/1/11
JBR,Jonesboro Municipal,AR,5,32455,"Jonesboro, AR",71,35.83166667,-90.64638889,7/1/11
JZV,North Little Rock Municipal,AR,5,32600,"Little Rock, AR",71,34.83305556,-92.25416667,7/1/11
LIT,Bill and Hillary Clinton Nat Adams Field,AR,5,32600,"Little Rock, AR",71,34.72944444,-92.22472222,12/1/17
LRF,Little Rock AFB,AR,5,33063,"Jacksonville, AR",71,34.9175,-92.145,12/1/17
MPJ,Petit Jean Park,AR,5,33441,"Morrilton, AR",71,35.13888889,-92.90916667,7/1/11
PBF,Pine Bluff Regional Grider Field,AR,5,34024,"Pine Bluff, AR",71,34.17444444,-91.93555556,12/1/17
ROG,Rogers Executive Carter Field,AR,5,34577,"Rogers, AR",71,36.3725,-94.10694444,12/1/17
SGT,Stuttgart Municipal Carl Humphrey Field,AR,5,34793,"Stuttgart, AR",71,34.59944444,-91.575,12/1/17
SPZ,Springdale Municipal,AR,5,34964,"Springdale, AR",71,36.17638889,-94.11916667,7/1/11
SRC,Searcy Municipal,AR,5,34975,"Searcy, AR",71,35.21055556,-91.7375,7/1/11
TXK,Texarkana Regional-Webb Field,AR,5,35401,"Texarkana, AR",71,33.45361111,-93.99111111,7/1/11
WMH,Baxter County,AR,5,35792,"Mountain Home, AR",71,36.36888889,-92.47055556,12/1/17
XNA,Northwest Arkansas Regional,AR,5,31834,"Fayetteville, AR",71,36.28166667,-94.30777778,12/1/17
XXX,Mena Intermountain Municipal,AR,5,35981,"Mena, AR",71,34.54527778,-94.20277778,10/1/01
PGR,Kirk Field,AR,5,36448,"Paragould, AR",71,36.06388889,-90.50916667,7/1/10
AR3,Bentonville Municipal Louise M Thaden Field,AR,5,36717,"Bentonville, AR",71,36.34527778,-94.21944444,12/1/17
ACV,California Redwood Coast Humboldt County,CA,6,30157,"Eureka/Arcata, CA",91,40.97777778,-124.1083333,12/1/17
ANA,Anaheim-Disneyland HP,CA,6,30297,"Anaheim, CA",91,33.81666667,-117.9333333,1/1/50
APC,Napa County,CA,6,30327,"Napa, CA",91,38.21305556,-122.2805556,7/1/11
APV,Apple Valley Airport,CA,6,30337,"Apple Valley, CA",91,34.57527778,-117.1861111,7/1/11
AUN,Auburn Municipal,CA,6,30418,"Auburn, CA",91,38.95472222,-121.0816667,7/1/11
BAB,Beale AFB,CA,6,30474,"Marysville, CA",91,39.13611111,-121.4366667,7/1/11
BFL,Meadows Field,CA,6,30561,"Bakersfield, CA",91,35.43388889,-119.0577778,7/1/11
BIH,Bishop Airport,CA,6,30617,"Bishop, CA",91,37.37305556,-118.3636111,12/1/17
BLH,Blythe Airport,CA,6,30665,"Blythe, CA",91,33.61916667,-114.7169444,7/1/11
BNG,Banning Municipal,CA,6,30698,"Banning, CA",91,33.9225,-116.8508333,12/1/17
BUR,Bob Hope,CA,6,32575,"Los Angeles, CA (Metropolitan Area)",91,34.20055556,-118.3586111,7/1/11
BXS,Borrego Valley,CA,6,30832,"Borrego Springs, CA",91,33.25916667,-116.3208333,7/1/11
C01,Camarillo Airport,CA,6,30857,"Camarillo, CA",91,34.21361111,-119.0944444,7/1/11
C02,Bakersfield Municipal,CA,6,30561,"Bakersfield, CA",91,35.32472222,-118.9961111,7/1/11
CCR,Buchanan Field,CA,6,32457,"San Francisco, CA (Metropolitan Area)",91,37.98972222,-122.0569444,7/1/11
CEC,Jack McNamara Field,CA,6,30930,"Crescent City, CA",91,41.78027778,-124.2366667,7/1/11
CIB,Catalina,CA,6,30437,"Catalina Island, CA",91,33.405,-118.4158333,7/1/69
CIC,Chico Municipal,CA,6,31002,"Chico, CA",91,39.79527778,-121.8583333,7/1/11
CKE,Pearce Field,CA,6,31029,"Clear Lake, CA",91,38.93472222,-122.6222222,12/1/75
CLD,McClellan-Palomar,CA,6,31041,"Carlsbad, CA",91,33.12833333,-117.28,7/1/11
CLG,New Coalinga Municipal,CA,6,31044,"Coalinga, CA",91,36.16222222,-120.2947222,4/1/98
CLR,Cliff Hatfield Memorial,CA,6,31055,"Calipatria, CA",91,33.13138889,-115.5213889,7/1/11
CNO,Chino Airport,CA,6,31086,"Chino, CA",91,33.97472222,-117.6363889,7/1/11
CO3,Marina Municipal,CA,6,31093,"Marina, CA",91,36.68166667,-121.7616667,7/1/11
COA,Columbia Airport,CA,6,31095,"Columbia, CA",91,38.03055556,-120.4144444,9/1/77
CXL,Calexico International,CA,6,31218,"Calexico, CA",91,32.6675,-115.5175,12/1/17
DAG,Barstow/Daggett,CA,6,31257,"Daggett, CA",91,34.85361111,-116.7866667,7/1/11
DQE,Holtville Airport,CA,6,31385,"Holtville, CA",91,32.845,-115.2686111,7/1/11
DQI,Colusa County,CA,6,31389,"Colusa, CA",91,39.17888889,-121.9933333,7/1/11
DTH,Furnace Creek,CA,6,31425,"Death Valley, CA",91,36.46055556,-116.8797222,7/1/11
DWA,Yolo County,CA,6,31452,"Davis/Woodland/Winters, CA",91,38.57944444,-121.8569444,7/1/11
EDW,Edwards AFB,CA,6,31490,"Edwards, CA",91,34.91805556,-117.8791667,12/1/17
EED,Needles Airport,CA,6,31491,"Needles, CA",91,34.76638889,-114.6233333,7/1/11
EKA,Murray Field,CA,6,30157,"Eureka/Arcata, CA",91,40.80333333,-124.1127778,7/1/11
EMT,San Gabriel Valley,CA,6,31554,"El Monte, CA",91,34.08611111,-118.0347222,12/1/17
F70,French Valley,CA,6,31627,"Murrieta/Temecula, CA",91,33.57416667,-117.1283333,7/1/11
FAT,Fresno Yosemite International,CA,6,31638,"Fresno, CA",91,36.77666667,-119.7188889,12/1/17
FCH,Fresno Chandler Executive,CA,6,31638,"Fresno, CA",91,36.73222222,-119.8202778,7/1/11
FOB,Fort Bragg Airport,CA,6,31723,"Fort Bragg, CA",91,39.47444444,-123.7955556,7/1/11
FQB,San Nicolas Island NOLF,CA,6,31735,"Ventura, CA",91,33.23972222,-119.4583333,12/1/17
FUL,Fullerton Municipal,CA,6,30297,"Anaheim, CA",91,33.87194444,-117.9797222,7/1/11
FVE,Fallbrook Community Airpark,CA,6,31801,"Fallbrook, CA",91,33.35416667,-117.2508333,3/1/95
FVP,Gansner Field,CA,6,31812,"Quincy, CA",91,39.94388889,-120.9452778,7/1/11
FVV,Kern Valley,CA,6,31818,"Kernville, CA",91,35.72833333,-118.4197222,3/1/98
HAF,Half Moon Bay Airport,CA,6,32062,"Half Moon Bay, CA",91,37.51333333,-122.5011111,7/1/11
HHR,Jack Northrop Field/Hawthorne Municipal,CA,6,32575,"Los Angeles, CA (Metropolitan Area)",91,33.92277778,-118.3352778,12/1/79
HLI,Hollister Municipal,CA,6,32154,"Hollister, CA",91,36.89333333,-121.4102778,7/1/11
HMT,Hemet-Ryan,CA,6,32166,"Hemet, CA",91,33.73388889,-117.0225,7/1/11
HWD,Hayward Executive,CA,6,32247,"Hayward, CA",91,37.65888889,-122.1216667,7/1/11
IPL,Imperial County,CA,6,32363,"El Centro, CA",91,32.83416667,-115.5788889,12/1/17
IYK,Inyokern Airport,CA,6,32436,"Inyokern, CA",91,35.65861111,-117.8294444,7/1/11
JBP,Commerce Business Park Heliport,CA,6,32575,"Los Angeles, CA (Metropolitan Area)",91,33.98666667,-118.1605556,7/1/11
JCC,China Basin Heliport,CA,6,32457,"San Francisco, CA (Metropolitan Area)",91,37.8,-122.4666667,1/1/50
JCE,Oakland Convention Center Heliport,CA,6,32457,"San Francisco, CA (Metropolitan Area)",91,37.80555556,-122.275,3/1/85
JID,Civic Financial Center Heliport,CA,6,32575,"Los Angeles, CA (Metropolitan Area)",91,34.02444444,-117.9591667,7/1/11
JMC,Marin County Heliport,CA,6,32457,"San Francisco, CA (Metropolitan Area)",91,37.87861111,-122.5097222,1/1/50
JNP,Newport Beach Airport,CA,6,32522,"Newport Beach, CA",91,33.61388889,-117.8897222,1/1/50
JOC,Centerport Heliport,CA,6,32575,"Los Angeles, CA (Metropolitan Area)",91,33.66666667,-117.8666667,1/1/50
JZL,San Clemente Island Nalf,CA,6,32590,"San Clemente Island, CA",91,33.02277778,-118.5886111,7/1/11
JZX,Angwin-Parrett Field,CA,6,32602,"Angwin, CA",91,38.58,-122.4355556,7/1/11
LAX,Los Angeles International,CA,6,32575,"Los Angeles, CA (Metropolitan Area)",91,33.9425,-118.4080556,12/1/17
LGB,Long Beach Airport,CA,6,32575,"Los Angeles, CA (Metropolitan Area)",91,33.81777778,-118.1513889,12/1/17
LPC,Lompoc Airport,CA,6,33049,"Lompoc, CA",91,34.66555556,-120.4675,7/1/11
LRO,Sharpe AFF,CA,6,33070,"Lathrop, CA",91,37.83666667,-121.2722222,3/1/85
LSN,Los Banos Municipal,CA,6,33080,"Los Banos, CA",91,37.06388889,-120.8697222,7/1/11
LVK,Livermore Municipal,CA,6,33117,"Livermore, CA",91,37.69333333,-121.8202778,7/1/11
MAE,Madera Municipal,CA,6,33157,"Madera, CA",91,36.98638889,-120.1125,12/1/17
MCC,McClellan Airfield,CA,6,33192,"Sacramento, CA",91,38.66777778,-121.4005556,7/1/11
MCE,Merced Regional/Macready Field,CA,6,33194,"Merced, CA",91,37.28472222,-120.5138889,7/1/11
MER,Castle,CA,6,33249,"Atwater, CA",91,37.38055556,-120.5680556,10/1/01
MHR,Sacramento Mather,CA,6,33192,"Sacramento, CA",91,38.55527778,-121.2972222,7/1/11
MHV,Mojave Air and Space Port,CA,6,33297,"Mojave, CA",91,35.05888889,-118.1505556,12/1/17
MIT,Shafter - Minter Field,CA,6,33319,"Shafter, CA",91,35.5075,-119.1922222,12/1/17
MMH,Mammoth Lakes Airport,CA,6,33388,"Mammoth Lakes, CA",91,37.63111111,-118.8513889,1/1/50
MOD,Modesto City-County-Harry Sham Field,CA,6,33424,"Modesto, CA",91,37.62583333,-120.9544444,7/1/11
MRY,Monterey Regional,CA,6,34922,"Salinas/Monterey, CA",91,36.58694444,-121.8430556,12/1/17
MYF,Montgomery Gibbs Executive,CA,6,33570,"San Diego, CA",91,32.81583333,-117.1394444,12/1/17
MYV,Yuba County,CA,6,30474,"Marysville, CA",91,39.09777778,-121.5697222,7/1/11
NJK,El Centro NAF,CA,6,32363,"El Centro, CA",91,32.82916667,-115.6716667,7/1/11
NKX,Miramar MCAS,CA,6,33570,"San Diego, CA",91,32.86861111,-117.1430556,12/1/17
NLC,Lemoore NAS,CA,6,33702,"Lemoore, CA",91,36.33305556,-119.9522222,12/1/17
NOT,Gnoss Field,CA,6,33725,"Novato, CA",91,38.14361111,-122.5572222,12/1/17
NTD,Point Mugu NAS,CA,6,33756,"Port Hueneme, CA",91,34.11916667,-119.1197222,12/1/17
NUQ,Moffett Federal Airfield,CA,6,33771,"Mountain View, CA",91,37.41611111,-122.0491667,7/1/11
NZJ,El Toro MCAS,CA,6,32575,"Los Angeles, CA (Metropolitan Area)",91,33.6675,-117.7183333,6/1/74
NZY,North Island NAS,CA,6,33570,"San Diego, CA",91,32.69833333,-117.2130556,12/1/17
O85,Benton Field,CA,6,33792,"Redding, CA",91,40.57361111,-122.4072222,12/1/17
OAK,Metropolitan Oakland International,CA,6,32457,"San Francisco, CA (Metropolitan Area)",91,37.72111111,-122.2211111,12/1/17
OCN,Bob Maxwell Memorial Airfield,CA,6,33813,"Oceanside, CA",91,33.21805556,-117.3513889,12/1/17
ONT,Ontario International,CA,6,32575,"Los Angeles, CA (Metropolitan Area)",91,34.05611111,-117.6011111,1/1/50
OVE,Oroville Municipal,CA,6,33981,"Oroville, CA",91,39.48777778,-121.6219444,7/1/11
OXR,Oxnard,CA,6,33988,"Oxnard/Ventura, CA",91,34.20083333,-119.2072222,7/1/11
OYS,Yosemite National Park Airport,CA,6,33994,"Yosemite National Park, CA",91,37.75,-119.5833333,9/1/77
PAO,Palo Alto Airport,CA,6,32457,"San Francisco, CA (Metropolitan Area)",91,37.46111111,-122.115,12/1/17
PMD,Palmdale USAF Plant 42,CA,6,34162,"Palmdale/Lancaster, CA",91,34.62944444,-118.0844444,12/1/17
POC,Brackett Field,CA,6,34198,"La Verne, CA",91,34.09166667,-117.7816667,7/1/11
PRB,Paso Robles Municipal,CA,6,34236,"Paso Robles/San Luis Obispo, CA",91,35.67277778,-120.6269444,7/1/11
PSP,Palm Springs International,CA,6,34262,"Palm Springs, CA",91,33.82972222,-116.5066667,8/1/15
PTV,Porterville Municipal,CA,6,34283,"Porterville, CA",91,36.02944444,-119.0627778,12/1/17
PVF,Placerville Airport,CA,6,34308,"Placerville, CA",91,38.72416667,-120.7533333,3/1/03
QEM,Emerald Bay Airport,CA,6,34383,"Emerald Bay, CA",91,33.55833333,-117.7111111,1/1/50
QQN,Woodlake Airport,CA,6,34424,"Woodlake, CA",91,36.39888889,-119.1069444,12/1/17
QQQ,Nevada County,CA,6,34427,"Grass Valley, CA",91,39.22416667,-121.0025,12/1/17
QQX,Healdsburg Municipal,CA,6,34434,"Healdsburg, CA",91,38.65277778,-122.8986111,7/1/11
RAL,Riverside Municipal,CA,6,34454,"Riverside, CA",91,33.95194444,-117.445,7/1/11
RBF,Big Bear City Airport,CA,6,34466,"Big Bear City, CA",91,34.26388889,-116.8561111,7/1/11
RBL,Red Bluff Municipal,CA,6,34469,"Red Bluff, CA",91,40.15027778,-122.2522222,12/1/17
RDD,Redding Municipal,CA,6,33792,"Redding, CA",91,40.50888889,-122.2933333,7/1/11
REB,Redlands Municipal,CA,6,34495,"Redlands, CA",91,34.08527778,-117.1463889,7/1/11
RIR,Flabob,CA,6,34454,"Riverside, CA",91,33.98888889,-117.41,7/1/11
RIV,March ARB,CA,6,34454,"Riverside, CA",91,33.88083333,-117.2594444,7/1/11
RQA,Lone Pine Death Valley,CA,6,34593,"Lone Pine, CA",91,36.58861111,-118.0494444,12/1/17
RQD,William Robert Johnston Municipal,CA,6,34596,"Mendota, CA",91,36.75861111,-120.3713889,7/1/11
RQK,China Lake Naws,CA,6,34603,"China Lake, CA",91,35.68555556,-117.6919444,7/1/11
RQQ,Watts/Woodland,CA,6,34609,"Woodland, CA",91,38.67388889,-121.8719444,7/1/11
RQU,Wasco-Kern County,CA,6,34613,"Wasco, CA",91,35.61972222,-119.3536111,9/1/94
SAC,Sacramento Executive,CA,6,33192,"Sacramento, CA",91,38.5125,-121.4933333,7/1/11
SAN,San Diego International,CA,6,33570,"San Diego, CA",91,32.73361111,-117.1897222,7/1/11
SBA,Santa Barbara Municipal,CA,6,34689,"Santa Barbara, CA",91,34.42611111,-119.8413889,7/1/11
SBD,San Bernardino International,CA,6,34691,"San Bernardino, CA",91,34.09527778,-117.235,7/1/11
SBP,San Luis County Regional,CA,6,34236,"Paso Robles/San Luis Obispo, CA",91,35.23722222,-120.6425,7/1/11
SBT,Tri-City,CA,6,34691,"San Bernardino, CA",91,34.0675,-117.2747222,6/1/83
SCK,Stockton Metropolitan,CA,6,34716,"Stockton, CA",91,37.89416667,-121.2383333,7/1/11
SDM,Brown Field Municipal,CA,6,33570,"San Diego, CA",91,32.57222222,-116.9802778,7/1/16
SEE,Gillespie Field,CA,6,33570,"San Diego, CA",91,32.82611111,-116.9725,7/1/11
SFO,San Francisco International,CA,6,32457,"San Francisco, CA (Metropolitan Area)",91,37.61888889,-122.3755556,12/1/17
SIY,Siskiyou County,CA,6,34830,"Montague, CA",91,41.78138889,-122.4680556,6/1/77
SJC,Norman Y. Mineta San Jose International,CA,6,32457,"San Francisco, CA (Metropolitan Area)",91,37.36305556,-121.9286111,12/1/17
SMF,Sacramento International,CA,6,33192,"Sacramento, CA",91,38.69555556,-121.5908333,7/1/11
SMO,Santa Monica Municipal,CA,6,32575,"Los Angeles, CA (Metropolitan Area)",91,34.01583333,-118.4513889,7/1/11
SMX,Santa Maria Public/Capt. G. Allan Hancock Field,CA,6,34905,"Santa Maria, CA",91,34.9,-120.4580556,12/1/17
SNA,John Wayne Airport-Orange County,CA,6,32575,"Los Angeles, CA (Metropolitan Area)",91,33.67555556,-117.8683333,7/1/11
SNS,Salinas Municipal,CA,6,34922,"Salinas/Monterey, CA",91,36.66277778,-121.6063889,7/1/11
SPQ,Catalina Air-Sea Terminal Heliport,CA,6,34958,"San Pedro, CA",91,33.74861111,-118.275,12/1/17
SQA,Santa Ynez Airport,CA,6,34965,"Santa Ynez, CA",91,34.60694444,-120.0755556,7/1/11
SQL,San Carlos Airport,CA,6,34967,"San Carlos, CA",91,37.51194444,-122.2494444,7/1/11
STS,Charles M. Schulz - Sonoma County,CA,6,34433,"Santa Rosa, CA",91,38.50972222,-122.8127778,12/1/17
SUU,Travis AFB,CA,6,35045,"Fairfield, CA",91,38.26444444,-121.9241667,12/1/17
SZP,Santa Paula Airport,CA,6,35110,"Santa Paula, CA",91,34.34694444,-119.0616667,7/1/11
TKF,Truckee Tahoe,CA,6,35232,"Truckee, CA",91,39.32,-120.1394444,12/1/77
TLR,Mefford Field,CA,6,35255,"Tulare, CA",91,36.15666667,-119.3266667,7/1/11
TNP,Twentynine Palms Airport,CA,6,35284,"Twentynine Palms, CA",91,34.13166667,-115.9458333,7/1/11
TOA,Zamperini Field,CA,6,35289,"Torrance, CA",91,33.80333333,-118.3397222,7/1/11
TRH,Trona Airport,CA,6,35322,"Trona, CA",91,35.81277778,-117.3269444,12/1/17
TRM,Jacqueline Cochran Regional,CA,6,34262,"Palm Springs, CA",91,33.62666667,-116.1597222,7/1/11
TSP,Tehachapi Municipal,CA,6,35344,"Tehachapi, CA",91,35.135,-118.4391667,7/1/11
TVL,Lake Tahoe Airport,CA,6,35383,"Lake Tahoe, CA",91,38.89388889,-119.9952778,7/1/11
TWH,Two Harbors Airport,CA,6,30437,"Catalina Island, CA",91,33.425,-118.5083333,1/1/50
UDD,Bermuda Dunes Airport,CA,6,34262,"Palm Springs, CA",91,33.74833333,-116.2747222,7/1/11
UKI,Ukiah Municipal,CA,6,35458,"Ukiah, CA",91,39.12583333,-123.2008333,7/1/11
UXD,Chowchilla Airport,CA,6,35518,"Chowchilla, CA",91,37.11333333,-120.2469444,7/1/11
UXK,Petaluma Municipal,CA,6,35525,"Petaluma, CA",91,38.25777778,-122.6052778,6/1/93
VBG,Vandenberg AFB,CA,6,33049,"Lompoc, CA",91,34.73722222,-120.5844444,7/1/11
VCV,Southern California Logistics,CA,6,35570,"Victorville, CA",91,34.5975,-117.3830556,1/1/50
VIS,Visalia Municipal,CA,6,35601,"Visalia, CA",91,36.31861111,-119.3927778,7/1/11
VNY,Van Nuys Airport,CA,6,32575,"Los Angeles, CA (Metropolitan Area)",91,34.20972222,-118.49,1/1/50
VWD,Hanford Municipal,CA,6,35649,"Hanford, CA",91,36.31666667,-119.6277778,7/1/11
VWI,California City Municipal,CA,6,35654,"California City, CA",91,35.15111111,-118.0166667,7/1/11
VWM,Weed Airport,CA,6,35658,"Weed, CA",91,41.48083333,-122.4544444,12/1/17
VWQ,Kingdon Airpark,CA,6,35662,"Lodi, CA",91,38.09166667,-121.3594444,3/1/93
VWR,Independence Airport,CA,6,35663,"Independence, CA",91,36.81638889,-118.205,7/1/11
VZL,Los Alamitos AAF,CA,6,35687,"Los Alamitos, CA",91,33.79,-118.0513889,7/1/11
WBH,Commerce/Montebello Heliport,CA,6,32575,"Los Angeles, CA (Metropolitan Area)",91,34.01666667,-118.1333333,9/1/75
WJF,General William J. Fox Airfield,CA,6,34162,"Palmdale/Lancaster, CA",91,34.74111111,-118.2186111,7/1/11
WLW,Willows Glenn County,CA,6,35789,"Willows, CA",91,39.51583333,-122.2172222,12/1/17
WQD,Tulelake Municipal,CA,6,35816,"Tulelake, CA",91,41.89055556,-121.3605556,7/1/11
WQE,Dinsmore Airport,CA,6,35817,"Dinsmore, CA",91,40.49194444,-123.5983333,7/1/11
WQG,Hesperia Airport,CA,6,35819,"Hesperia, CA",91,34.37694444,-117.3161111,7/1/11
WQH,Butte Valley,CA,6,35820,"Dorris, CA",91,41.88722222,-121.9755556,7/1/11
WQO,Rosamond Skypark,CA,6,35827,"Rosamond, CA",91,34.87055556,-118.2055556,7/1/11
WQP,Oceano County,CA,6,35828,"Oceano, CA",91,35.10138889,-120.6222222,7/1/11
WVI,Watsonville Municipal,CA,6,35877,"Watsonville, CA",91,36.93555556,-121.7894444,7/1/11
XXN,Ells Field-Willits Municipal,CA,6,35971,"Willits, CA",91,39.45138889,-123.3722222,7/1/11
XXP,Lampson Field,CA,6,35973,"Lakeport, CA",91,38.99055556,-122.9008333,7/1/11
XXR,Mariposa-Yosemite,CA,6,35975,"Mariposa, CA",91,37.51083333,-120.0394444,7/1/11
XXY,Rohnerville,CA,6,35982,"Fortuna, CA",91,40.55388889,-124.1327778,7/1/11
ZXC,Ward Field,CA,6,36336,"Gasquet, CA",91,41.84555556,-123.9847222,7/1/11
ZXT,Cloverdale Municipal,CA,6,36352,"Cloverdale, CA",91,38.77638889,-122.9925,12/1/17
ZXW,Paradise Skypark,CA,6,36355,"Paradise, CA",91,39.71055556,-121.6163889,7/1/11
CA6,Chemehuevi Valley Airport,CA,6,36507,"Chemehuevi Valley, CA",91,34.52888889,-114.4319444,9/1/11
CA7,Tracy Municipal,CA,6,36582,"Tracy, CA",91,37.68888889,-121.4416667,2/1/14
WHP,Whiteman,CA,6,32575,"Los Angeles, CA (Metropolitan Area)",91,34.25944444,-118.4133333,4/1/15
BWC,Brawley Municipal,CA,6,36733,"Brawley, CA",91,32.99305556,-115.5172222,12/1/17
RNM,Ramona Airport,CA,6,33570,"San Diego, CA",91,33.03916667,-116.9152778,10/1/17
AFF,USAF Academy Airfield,CO,8,30189,"Colorado Springs, CO",82,38.97416667,-104.8177778,12/1/17
AKO,Colorado Plains Regional,CO,8,30246,"Akron, CO",82,40.17555556,-103.2219444,7/1/11
ALS,San Luis Valley Regional/Bergman Field,CO,8,30272,"Alamosa, CO",82,37.435,-105.8677778,12/1/17
AMK,Animas Air Park,CO,8,30285,"Durango, CO",82,37.20305556,-107.8691667,7/1/11
APA,Centennial,CO,8,30325,"Denver, CO",82,39.57,-104.8494444,7/1/11
ASE,Aspen Pitkin County Sardy Field,CO,8,30372,"Aspen, CO",82,39.22194444,-106.8683333,12/1/17
BCJ,Baca Grande,CO,8,30514,"Crestone, CO",82,37.96666667,-105.7666667,12/1/79
BFK,Buckley AFB,CO,8,30325,"Denver, CO",82,39.70166667,-104.7516667,10/1/00
BJC,Rocky Mountain Metro,CO,8,30630,"Broomfield, CO",82,39.90888889,-105.1172222,12/1/17
CEZ,Cortez Municipal,CO,8,30950,"Cortez, CO",82,37.30305556,-108.6280556,7/1/11
CIG,Craig-Moffat,CO,8,31004,"Craig, CO",82,40.49527778,-107.5216667,7/1/11
CNE,Fremont County,CO,8,31081,"Canon City, CO",82,38.42861111,-105.1069444,12/1/17
COS,City of Colorado Springs Municipal,CO,8,30189,"Colorado Springs, CO",82,38.80583333,-104.7008333,7/1/11
CQL,Glen-Aspen,CO,8,31128,"Carbondale, CO",82,39.38888889,-107.16,7/1/11
CSE,Buckhorn Ranch,CO,8,31149,"Crested Butte, CO",82,38.85194444,-106.9327778,7/1/11
DEN,Denver International,CO,8,30325,"Denver, CO",82,39.86166667,-104.6730556,9/1/93
DRO,Durango La Plata County,CO,8,30285,"Durango, CO",82,37.16388889,-107.7422222,12/1/17
EGE,Eagle County Regional,CO,8,31503,"Eagle, CO",82,39.64277778,-106.9158333,12/1/17
FCS,Butts AAF,CO,8,30189,"Colorado Springs, CO",82,38.67972222,-104.7608333,12/1/17
FNL,Northern Colorado Regional,CO,8,31719,"Fort Collins/Loveland, CO",82,40.45194444,-105.0113889,3/1/18
FTG,Front Range,CO,8,30325,"Denver, CO",82,39.78416667,-104.5375,12/1/17
GJT,Grand Junction Regional,CO,8,31921,"Grand Junction, CO",82,39.1225,-108.5266667,7/1/11
GUC,Gunnison-Crested Butte Regional,CO,8,32012,"Gunnison, CO",82,38.53444444,-106.9316667,12/1/17
GWS,Glenwood Springs Municipal,CO,8,32041,"Glenwood Springs, CO",82,39.50611111,-107.3091667,7/1/11
HDN,Yampa Valley,CO,8,34699,"Steamboat Springs, CO",82,40.48111111,-107.2177778,7/1/11
LAA,Lamar Municipal,CO,8,32873,"Lamar, CO",82,38.06972222,-102.6886111,7/1/11
LGM,Longmont Municipal,CO,8,32961,"Longmont, CO",82,40.16166667,-105.1613889,1/1/50
LHX,La Junta Municipal,CO,8,32976,"La Junta, CO",82,38.05,-103.5097222,7/1/11
LIC,Limon Municipal,CO,8,32979,"Limon, CO",82,39.27472222,-103.6658333,7/1/11
LXV,Lake County,CO,8,33135,"Leadville, CO",82,39.21944444,-106.3163889,7/1/11
MTJ,Montrose Regional,CO,8,33502,"Montrose/Delta, CO",82,38.50972222,-107.8941667,7/1/11
PGO,Stevens Field,CO,8,34089,"Pagosa Springs, CO",82,37.28638889,-107.0561111,7/1/11
PUB,Pueblo Memorial,CO,8,34288,"Pueblo, CO",82,38.29,-104.4980556,12/1/17
WPO,North Fork Valley,CO,8,34444,"Paonia, CO",82,38.83138889,-107.6458333,3/1/78
RIL,Rifle Garfield County,CO,8,34530,"Rifle, CO",82,39.52666667,-107.7280556,12/1/17
RNG,Rangely Airport,CO,8,34567,"Rangely, CO",82,40.09388889,-108.7630556,7/1/11
RQX,Kit Carson County,CO,8,34616,"Burlington, CO",82,39.2425,-102.2852778,9/1/94
RYE,Weld County Municipal,CO,8,34660,"Greeley, CO",82,40.42638889,-104.63,1/1/50
SBS,Steamboat Springs/Bob Adams Field,CO,8,34699,"Steamboat Springs, CO",82,40.51611111,-106.8663889,7/1/11
SLT,Harriet Alexander Field,CO,8,34883,"Salida, CO",82,38.53833333,-106.0486111,7/1/11
STK,Sterling Municipal,CO,8,35015,"Sterling, CO",82,40.61416667,-103.2641667,12/1/17
TAD,Las Animas County,CO,8,35117,"Trinidad, CO",82,37.25972222,-104.3391667,1/1/50
TEX,Telluride Regional,CO,8,35177,"Telluride, CO",82,37.95388889,-107.9088889,7/1/11
ZXY,Blake Field,CO,8,36357,"Delta, CO",82,38.78638889,-108.0636111,7/1/11
CO1,Monte Vista Municipal,CO,8,36745,"Monte Vista, CO",82,37.52861111,-106.0458333,12/1/17
BDL,Bradley International,CT,9,30529,"Hartford, CT",11,41.93916667,-72.68333333,12/1/17
BDR,Igor I Sikorsky Memorial,CT,9,30535,"Bridgeport, CT",11,41.16333333,-73.12611111,7/1/11
DXR,Danbury Municipal,CT,9,31364,"Danbury, CT",11,41.37166667,-73.48222222,7/1/11
EHT,Rentschler Heliport,CT,9,30529,"Hartford, CT",11,41.75333333,-72.62833333,7/1/11
GON,Groton-New London,CT,9,31961,"New London/Groton, CT",11,41.33,-72.04527778,7/1/11
HFD,Hartford Brainard,CT,9,30529,"Hartford, CT",11,41.73666667,-72.64944444,7/1/11
HVN,Tweed New Haven,CT,9,32244,"New Haven, CT",11,41.26388889,-72.88694444,7/1/11
OXC,Waterbury Oxford,CT,9,33987,"Waterbury, CT",11,41.47861111,-73.13527778,1/1/50
CT1,Robertson Field,CT,9,36442,"Plainville, CT",11,41.68944444,-72.86472222,12/1/17
CT2,Simsbury Airport,CT,9,36485,"Simsbury, CT",11,41.93277778,-72.77694444,4/1/11
CT3,Windham,CT,9,36578,"Willimantic, CT",11,41.74416667,-72.18027778,11/1/13
CT4,Candlelight Farms,CT,9,36628,"New Milford, CT",11,41.56916667,-73.46194444,6/1/14
CT5,Danielson Airport,CT,9,36640,"Danielson, CT",11,41.81972222,-71.90083333,6/1/14
CT6,Goodspeed,CT,9,36663,"East Haddam, CT",11,41.44555556,-72.45555556,4/1/15
DOV,Dover AFB,DE,10,31375,"Dover, DE",31,39.12944444,-75.46583333,7/1/11
GED,Delaware Coastal,DE,10,31883,"Georgetown, DE",31,38.68777778,-75.35944444,12/1/17
ILG,New Castle,DE,10,32320,"Wilmington, DE",31,39.67861111,-75.60666667,7/1/11
REH,Rehoboth Aircrafters,DE,10,34500,"Rehoboth, DE",31,38.71944444,-75.12666667,1/1/50
DE2,Summit,DE,10,36510,"Middletown, DE",31,39.52111111,-75.72361111,10/1/11
DE3,Delware Airpark,DE,10,36649,"Dover-Cheswold, DE",31,39.21833333,-75.59666667,1/1/15
WAS,Washington DC Metropolitan Area,DC,11,30852,"Washington, DC (Metropolitan Area)",32,38.88333333,-77.03333333,3/1/74
AAF,Apalachicola Regional Cleve Randolph Field,FL,12,30122,"Apalachicola, FL",33,29.7275,-85.0275,12/1/17
APF,Naples Municipal,FL,12,30329,"Naples, FL",33,26.1525,-81.77555556,12/1/17
AVO,Avon Park Executive,FL,12,30433,"Avon Park, FL",33,27.59138889,-81.52888889,7/1/11
BCT,Boca Raton Public,FL,12,30519,"Boca Raton, FL",33,26.37083333,-80.10833333,1/1/50
BOW,Bartow Municipal,FL,12,30722,"Bartow, FL",33,27.94333333,-81.78333333,7/1/11
CEW,Bob Sikes,FL,12,30947,"Crestview, FL",33,30.77888889,-86.52222222,7/1/11
COF,Patrick AFB,FL,12,31099,"Cocoa Beach, FL",33,28.235,-80.61,11/1/12
CRG,Jacksonville Executive at Craig,FL,12,31136,"Jacksonville, FL",33,30.33638889,-81.51444444,12/1/17
CTY,Cross City Airport,FL,12,31175,"Cross City, FL",33,29.63555556,-83.10472222,7/1/11
DAB,Daytona Beach International,FL,12,31252,"Daytona Beach, FL",33,29.18,-81.05805556,7/1/11
DQC,Sebastian Municipal,FL,12,31383,"Sebastian, FL",33,27.81333333,-80.49555556,7/1/11
DQN,New Smyrna Beach Municipal,FL,12,31394,"New Smyrna Beach, FL",33,29.05555556,-80.94888889,7/1/11
DQY,Cape Canaveral AFS Skid Strip,FL,12,31405,"Cape Canaveral, FL",33,28.4675,-80.56666667,7/1/11
DSI,Destin Executive,FL,12,31421,"Destin, FL",33,30.4,-86.47138889,12/1/17
ECP,Northwest Florida Beaches International,FL,12,31481,"Panama City, FL",33,30.35833333,-85.79555556,7/1/11
EGI,Duke Field,FL,12,30947,"Crestview, FL",33,30.64861111,-86.52194444,12/1/17
EYW,Key West International,FL,12,31624,"Key West, FL",33,24.55611111,-81.75944444,7/1/11
FL1,Zephyrhills Municipal,FL,12,31686,"Zephyrhills, FL",33,28.22805556,-82.15611111,12/1/17
FL2,Valkaria Airport,FL,12,31687,"Valkaria, FL",33,27.96083333,-80.55833333,7/1/11
FL4,Flagler Executive,FL,12,31689,"Bunnell, FL",33,29.46527778,-81.20777778,3/1/18
FL5,Williston Municipal,FL,12,31690,"Williston, FL",33,29.35555556,-82.47194444,12/1/17
FLL,Fort Lauderdale-Hollywood International,FL,12,32467,"Miami, FL (Metropolitan Area)",33,26.07166667,-80.14972222,12/1/17
FMY,Page Field,FL,12,31714,"Fort Myers, FL",33,26.58666667,-81.86333333,7/1/11
FPR,Treasure Coast International,FL,12,31732,"Fort Pierce, FL",33,27.4975,-80.37277778,12/1/17
FPY,Perry-Foley,FL,12,31733,"Perry, FL",33,30.06916667,-83.58055556,7/1/11
FXE,Fort Lauderdale Executive,FL,12,32467,"Miami, FL (Metropolitan Area)",33,26.19722222,-80.17083333,7/1/11
GNV,Gainesville Regional,FL,12,31953,"Gainesville, FL",33,29.69,-82.27166667,7/1/11
HST,Homestead ARB,FL,12,32216,"Homestead, FL",33,25.48861111,-80.38361111,7/1/11
IMM,Immokalee Regional,FL,12,32333,"Immokalee, FL",33,26.43388889,-81.40055556,12/1/17
ISM,Kissimmee Gateway,FL,12,31454,"Orlando, FL",33,28.28972222,-81.43694444,7/1/11
JAX,Jacksonville International,FL,12,31136,"Jacksonville, FL",33,30.49416667,-81.68777778,7/1/11
JDM,Miami Downtown Heliport,FL,12,32467,"Miami, FL (Metropolitan Area)",33,25.76666667,-80.18333333,6/1/84
JZQ,Brooksville Tampa Bay Regional,FL,12,32595,"Brooksville, FL",33,28.47361111,-82.45555556,12/1/17
OCA,Ocean Reef Club,FL,12,32661,"Key Largo, FL",33,25.32444444,-80.27583333,12/1/17
LAL,Lakeland Linder Regional,FL,12,33195,"Tampa, FL (Metropolitan Area)",33,27.98888889,-82.01861111,7/1/11
LEE,Leesburg International,FL,12,32934,"Leesburg, FL",33,28.82277778,-81.80833333,7/1/11
MCF,Macdill AFB,FL,12,33195,"Tampa, FL (Metropolitan Area)",33,27.84944444,-82.52111111,7/1/11
MCO,Orlando International,FL,12,31454,"Orlando, FL",33,28.42944444,-81.30888889,7/1/11
MIA,Miami International,FL,12,32467,"Miami, FL (Metropolitan Area)",33,25.79527778,-80.29,7/1/11
MLB,Melbourne International,FL,12,33360,"Melbourne, FL",33,28.10277778,-80.64527778,7/1/11
MPB,Watson Island International,FL,12,32467,"Miami, FL (Metropolitan Area)",33,25.77833333,-80.17027778,3/1/80
MRK,Marco Island Airport,FL,12,33469,"Marco Island, FL",33,25.995,-81.6725,7/1/11
MTH,The Florida Keys Marathon International,FL,12,33501,"Marathon, FL",33,24.72611111,-81.05138889,12/1/17
NIP,Jacksonville NAS,FL,12,31136,"Jacksonville, FL",33,30.23361111,-81.67611111,12/1/17
NPA,Pensacola NAS,FL,12,33728,"Pensacola, FL",33,30.35333333,-87.31805556,7/1/11
NQX,Key West NAS,FL,12,31624,"Key West, FL",33,24.57472222,-81.68666667,12/1/17
NRB,Mayport NS,FL,12,33739,"Mayport, FL",33,30.39138889,-81.42444444,7/1/11
NSE,Whiting Field NAS North,FL,12,33747,"Milton, FL",33,30.7225,-87.02388889,3/1/18
NSL,NASA Shuttle Landing Facility,FL,12,33750,"Merritt Island, FL",33,28.615,-80.69444444,7/1/11
VQQ,Cecil,FL,12,31136,"Jacksonville, FL",33,30.21888889,-81.87722222,12/1/17
OCF,Ocala International-Jim Taylor Field,FL,12,33809,"Ocala, FL",33,29.17194444,-82.22416667,7/1/11
OPF,Miami Opa Locka Executive,FL,12,32467,"Miami, FL (Metropolitan Area)",33,25.9075,-80.27833333,12/1/17
ORL,Executive,FL,12,31454,"Orlando, FL",33,28.54555556,-81.33305556,7/1/11
PAM,Tyndall AFB,FL,12,31481,"Panama City, FL",33,30.06916667,-85.575,12/1/17
PBI,Palm Beach International,FL,12,34027,"West Palm Beach/Palm Beach, FL",33,26.68305556,-80.09555556,7/1/11
PGD,Punta Gorda Airport,FL,12,34082,"Punta Gorda, FL",33,26.91888889,-81.99083333,7/1/11
PIE,St Pete Clearwater International,FL,12,33195,"Tampa, FL (Metropolitan Area)",33,27.90861111,-82.68638889,12/1/17
PNS,Pensacola International,FL,12,33728,"Pensacola, FL",33,30.47333333,-87.18666667,12/1/17
PPM,Pompano Beach Airpark,FL,12,34223,"Pompano Beach, FL",33,26.2475,-80.11111111,12/1/17
RBN,Fort Jefferson Airport,FL,12,34470,"Fort Jefferson, FL",33,24.62861111,-82.87333333,1/1/90
RQZ,Hurlburt Field,FL,12,34618,"Mary Esther, FL",33,30.42777778,-86.68916667,7/1/11
RSW,Southwest Florida International,FL,12,31714,"Fort Myers, FL",33,26.53611111,-81.75527778,7/1/11
SEF,Sebring Regional,FL,12,34750,"Sebring, FL",33,27.45638889,-81.3425,7/1/11
SFB,Orlando Sanford International,FL,12,34761,"Sanford, FL",33,28.77694444,-81.235,12/1/17
SPG,Albert Whitted,FL,12,33195,"Tampa, FL (Metropolitan Area)",33,27.765,-82.62694444,7/1/11
SRQ,Sarasota/Bradenton International,FL,12,34986,"Sarasota/Bradenton, FL",33,27.39555556,-82.55444444,7/1/11
SUA,Witham Field,FL,12,35030,"Stuart, FL",33,27.18166667,-80.22138889,7/1/11
TIX,Space Coast Regional,FL,12,35221,"Titusville, FL",33,28.51472222,-80.79916667,7/1/11
TLH,Tallahassee International,FL,12,35249,"Tallahassee, FL",33,30.39666667,-84.35083333,12/1/17
TMB,Miami Executive,FL,12,32467,"Miami, FL (Metropolitan Area)",33,25.6475,-80.43333333,12/1/17
TNT,Dade-Collier Training and Transition,FL,12,32467,"Miami, FL (Metropolitan Area)",33,25.86194444,-80.89694444,7/1/11
TPA,Tampa International,FL,12,33195,"Tampa, FL (Metropolitan Area)",33,27.97555556,-82.53333333,7/1/11
TPF,Peter O'Knight,FL,12,33195,"Tampa, FL (Metropolitan Area)",33,27.91555556,-82.44944444,12/1/17
UST,Northeast Florida Regional,FL,12,35497,"St. Augustine, FL",33,29.95916667,-81.33972222,12/1/17
VNC,Venice Municipal,FL,12,35615,"Venice, FL",33,27.07166667,-82.44027778,7/1/11
VPS,Eglin AFB Destin Fort Walton Beach,FL,12,31504,"Valparaiso, FL",33,30.48333333,-86.52527778,12/1/17
VRB,Vero Beach Regional,FL,12,35628,"Vero Beach, FL",33,27.65555556,-80.41805556,12/1/17
XWN,William P Gwinn,FL,12,35947,"Jupiter, FL",33,26.90805556,-80.32833333,12/1/17
XXW,Lake City Gateway,FL,12,35980,"Lake City, FL",33,30.18194444,-82.57694444,12/1/17
FHB,Fernandina Beach Municipal,FL,12,36363,"Fernandina Beach, FL",33,30.61194444,-81.46111111,1/1/10
FL6,Airglades,FL,12,36521,"Clewiston, FL",33,26.73527778,-81.05111111,3/1/12
OBE,Okeechobee County,FL,12,36527,"Okeechobee, FL",33,27.26666667,-80.85027778,3/1/12
FL7,Coral Creek,FL,12,36727,"Placida, FL",33,26.85361111,-82.2525,12/1/17
ABY,Southwest Georgia Regional,GA,13,30146,"Albany, GA",34,31.53555556,-84.19444444,7/1/11
AGS,Augusta Regional at Bush Field,GA,13,30208,"Augusta, GA",34,33.37,-81.96444444,7/1/11
AHN,Athens/Ben Epps,GA,13,30216,"Athens, GA",34,33.94861111,-83.32583333,12/1/17
ATL,Hartsfield-Jackson Atlanta International,GA,13,30397,"Atlanta, GA (Metropolitan Area)",34,33.63666667,-84.42777778,12/1/17
AYS,Waycross-Ware County,GA,13,30460,"Waycross, GA",34,31.24833333,-82.39527778,7/1/11
BGE,Decatur County Industrial Air Park,GA,13,30573,"Bainbridge, GA",34,30.97166667,-84.63694444,7/1/11
BQK,Brunswick Golden Isles,GA,13,30731,"Brunswick, GA",34,31.25916667,-81.46638889,7/1/11
CSG,Columbus Airport,GA,13,31150,"Columbus, GA",34,32.51638889,-84.93888889,12/1/17
DBN,W H Bud Barron,GA,13,31272,"Dublin, GA",34,32.56472222,-82.985,12/1/17
DNL,Daniel Field,GA,13,30208,"Augusta, GA",34,33.46666667,-82.03944444,12/1/17
DNN,Dalton Municipal,GA,13,31359,"Dalton, GA",34,34.72305556,-84.87027778,7/1/11
FTY,Fulton County Airport-Brown Field,GA,13,30397,"Atlanta, GA (Metropolitan Area)",34,33.77916667,-84.52138889,4/1/76
GA1,Barwick Lafayette,GA,13,31836,"Lafayette, GA",34,34.68861111,-85.29027778,7/1/11
GA2,West Georgia Regional - O V Gray Field,GA,13,31837,"Carrollton, GA",34,33.63166667,-85.15222222,7/1/11
GA3,Newnan Coweta County,GA,13,30397,"Atlanta, GA (Metropolitan Area)",34,33.31166667,-84.76972222,1/1/08
GVL,Lee Gilmer Memorial,GA,13,32028,"Gainesville, GA",34,34.2725,-83.83027778,7/1/11
JAJ,Perimeter Mall Helipad,GA,13,30397,"Atlanta, GA (Metropolitan Area)",34,33.765,-84.41777778,9/1/83
JAO,Beaver Ruin,GA,13,30397,"Atlanta, GA (Metropolitan Area)",34,33.93333333,-84.15,12/1/82
JGL,Galleria,GA,13,30397,"Atlanta, GA (Metropolitan Area)",34,33.58333333,-84.46666667,3/1/83
LGC,LaGrange-Callaway,GA,13,32955,"LaGrange, GA",34,33.00888889,-85.0725,7/1/11
LIY,Wright AAF/Midcoast Regional,GA,13,32995,"Hinesville, GA",34,31.88833333,-81.56166667,7/1/11
LSF,Lawson AAF,GA,13,31150,"Columbus, GA",34,32.33166667,-84.98722222,12/1/17
LZU,Gwinnett County - Briscoe Field,GA,13,33151,"Lawrenceville, GA",34,33.97805556,-83.9625,7/1/11
MAC,Macon Downtown,GA,13,33155,"Macon, GA",34,32.82166667,-83.56194444,12/1/17
MCN,Middle Georgia Regional,GA,13,33155,"Macon, GA",34,32.69277778,-83.64916667,7/1/11
MGE,Dobbins ARB,GA,13,33273,"Marietta, GA",34,33.91444444,-84.51416667,12/1/17
MGR,Moultrie/Thomasville Airport,GA,13,33280,"Moultrie/Thomasville, GA",34,31.06944444,-83.80277778,9/1/74
MUL,Spence,GA,13,33523,"Moultrie, GA",34,31.13777778,-83.70416667,7/1/11
NCQ,Dobbins ARB,GA,13,33273,"Marietta, GA",34,33.91444444,-84.51416667,12/1/17
PDK,Dekalb Peachtree,GA,13,30397,"Atlanta, GA (Metropolitan Area)",34,33.87555556,-84.30194444,7/1/11
PIM,Harris County,GA,13,34116,"Pine Mountain, GA",34,32.84055556,-84.8825,1/1/50
QMA,Cobb County International McCollum Field,GA,13,30397,"Atlanta, GA (Metropolitan Area)",34,34.01305556,-84.59694444,12/1/17
QQT,Atlanta Regional Falcon Field,GA,13,34430,"Peachtree City, GA",34,33.35777778,-84.5725,12/1/17
RMG,Richard B Russell Regional J H Towers Field,GA,13,34554,"Rome, GA",34,34.35083333,-85.15861111,12/1/17
SAV,Savannah/Hilton Head International,GA,13,34685,"Savannah, GA",34,32.1275,-81.20222222,7/1/11
SSI,McKinnon St Simons Island,GA,13,30731,"Brunswick, GA",34,31.15194444,-81.39111111,12/1/17
SVN,Hunter AAF,GA,13,34685,"Savannah, GA",34,32.01,-81.14611111,7/1/11
TBR,Statesboro-Bulloch County,GA,13,35141,"Statesboro, GA",34,32.48277778,-81.73694444,7/1/11
TMA,Henry Tift Myers,GA,13,35259,"Tifton, GA",34,31.42944444,-83.48916667,12/1/17
TVI,Thomasville Regional,GA,13,33280,"Moultrie/Thomasville, GA",34,30.90194444,-83.88111111,12/1/17
VAD,Moody AFB,GA,13,35550,"Valdosta, GA",34,30.96861111,-83.19305556,12/1/17
VDI,Vidalia Regional,GA,13,35574,"Vidalia, GA",34,32.19277778,-82.37111111,7/1/11
VLD,Valdosta Regional,GA,13,35550,"Valdosta, GA",34,30.78138889,-83.27611111,7/1/11
VPC,Cartersville Airport,GA,13,35622,"Cartersville, GA",34,34.12305556,-84.84861111,1/1/02
VWT,Jimmy Carter Regional,GA,13,35665,"Americus, GA",34,32.11083333,-84.18888889,7/1/11
WDR,Barrow County,GA,13,35737,"Winder, GA",34,33.98277778,-83.6675,7/1/11
WRB,Robins AFB,GA,13,33155,"Macon, GA",34,32.64027778,-83.59194444,7/1/11
GA4,Jackson County,GA,13,36467,"Jefferson, GA",34,34.17611111,-83.56166667,12/1/17
GA5,Thomson McDuffie County,GA,13,36568,"Thomson, GA",34,33.52972222,-82.51694444,1/1/13
GA6,Cherokee County,GA,13,36656,"Canton, GA",34,34.31222222,-84.42222222,12/1/17
GA0,Heart of Georgia Regional,GA,13,36670,"Eastman, GA",34,32.21638889,-83.12861111,9/1/15
GA7,Greene County Regional,GA,13,36757,"Greensboro, GA",34,33.59805556,-83.13833333,10/1/17
OPN,Thomaston Upson County,GA,13,36761,"Thomaston, GA",34,32.955,-84.26416667,10/1/17
BKH,Barking Sands PMRF,HI,15,30644,"Kekaha, Kauai, HI",2,22.02277778,-159.785,7/1/11
HDH,Dillingham,HI,15,32092,"Mokuleia, HI",2,21.57944444,-158.1972222,7/1/11
